[{"id":"w1453813227","name":"#2 Green","lat":35.13683,"lon":-114.52916,"holes":null,"par":null,"city":null,"state":null,"street":null,"postcode":null,"phone":null,"website":null,"access":null},{"id":"w1453813226","name":"#2 Tee Red","lat":35.13764,"lon":-114.53084,"holes":null,"par":null,"city":null,"state":null,"street":null,"postcode":null,"phone":null,"website":null,"access":null},{"id":"w1453813225","name":"#2 Tee White","lat":35.13757,"lon":-114.53143,"holes":null,"par":null,"city":null,"state":null,"street":null,"postcode":null,"phone":null,"website":null,"access":null},{"id":"w1441497013","name":"#8 White Tee","lat":35.13823,"lon":-114.53255,"holes":null,"par":null,"city":null,"state":null,"street":null,"postcode":null,"phone":null,"website":null,"access":null},{"id":"w421723747","name":"118 / 35 Driving Range","lat":45.0463,"lon":-78.70121,"holes":null,"par":null,"city":null,"state":null,"street":null,"postcode":null,"phone":null,"website":null,"access":null},{"id":"r6396830","name":"12 Oaks","lat":35.66756,"lon":-78.87465,"holes":null,"par":null,"city":null,"state":null,"street":null,"postcode":null,"phone":null,"website":null,"access":null},{"id":"w267296595","name":"12 Shores","lat":35.34148,"lon":-103.51801,"holes":null,"par":null,"city":null,"state":null,"street":null,"postcode":null,"phone":"+1-575-403-7177; +1-877-224-5071","website":"http://www.twelveshores.com/","access":null},{"id":"w406000076","name":"16 holes","lat":28.28311,"lon":-81.63549,"holes":null,"par":null,"city":null,"state":null,"street":null,"postcode":null,"phone":null,"website":null,"access":null},{"id":"w48208604","name":"1757 Golf Club","lat":39.01363,"lon":-77.44719,"holes":null,"par":null,"city":null,"state":null,"street":null,"postcode":null,"phone":null,"website":null,"access":null},{"id":"w442950900","name":"18 Hole Groomed Putting Course","lat":33.3546,"lon":-118.3328,"holes":null,"par":null,"city":null,"state":null,"street":null,"postcode":null,"phone":null,"website":null,"access":null},{"id":"w134402125","name":"18 Mile Creek Golf Course","lat":42.71063,"lon":-78.81048,"holes":18,"par":null,"city":null,"state":null,"street":null,"postcode":null,"phone":null,"website":null,"access":null},{"id":"w173734614","name":"19 Greens Putting Course","lat":49.87916,"lon":-119.5255,"holes":null,"par":null,"city":"West Kelowna","state":null,"street":"2050 Campbell Road","postcode":"V1Z3X7","phone":null,"website":"http://www.19greenskelowna.com/","access":null},{"id":"n9517342676","name":"1st Tee","lat":36.09061,"lon":-79.48955,"holes":null,"par":null,"city":null,"state":null,"street":null,"postcode":null,"phone":null,"website":null,"access":null},{"id":"w228374678","name":"27 Pines Golf Course","lat":44.77569,"lon":-87.344,"holes":null,"par":null,"city":null,"state":null,"street":null,"postcode":null,"phone":null,"website":null,"access":null},{"id":"w218886035","name":"3 Lakes Golf Course","lat":40.47785,"lon":-79.80472,"holes":null,"par":null,"city":"Penn Hills","state":null,"street":"6700 Saltsburg Road","postcode":"15235","phone":"+1 412-793-3025","website":"https://www.3lakesgolf.com/","access":null},{"id":"r4607221","name":"3's Greenville Golf & Gril","lat":34.86087,"lon":-82.34837,"holes":null,"par":null,"city":null,"state":null,"street":null,"postcode":null,"phone":null,"website":"https://www.3s.golf/","access":null},{"id":"w297465689","name":"3/30 Golf & Country Club","lat":41.85714,"lon":-90.91622,"holes":null,"par":null,"city":"Lowden","state":null,"street":"101 Country Club Lane","postcode":"52255","phone":"+1 563-941-7695","website":"http://www.330golfandcountryclub.com/","access":null},{"id":"w297224920","name":"5 by 80 Golf and Country Club","lat":41.49323,"lon":-94.4473,"holes":null,"par":null,"city":"Menlo","state":null,"street":"1086 State Highway 25","postcode":"50146","phone":"+1 641-524-2345","website":"https://www.5by80golf.com/","access":null},{"id":"w505903378","name":"5 Hole Golf Course","lat":36.95312,"lon":-76.31371,"holes":null,"par":null,"city":null,"state":null,"street":null,"postcode":null,"phone":null,"website":null,"access":null},{"id":"w406000077","name":"5 holes","lat":28.28028,"lon":-81.63957,"holes":null,"par":null,"city":null,"state":null,"street":null,"postcode":null,"phone":null,"website":null,"access":null},{"id":"r6390097","name":"7 Lakes Golf Club","lat":35.26649,"lon":-79.56908,"holes":null,"par":null,"city":"Seven Lakes","state":null,"street":"174 Devonshire Drive","postcode":"27376","phone":"+1 910 673 4653","website":"https://golf7lakes.com/","access":null},{"id":"w242917004","name":"9-Hole Short/Executive Course","lat":44.28921,"lon":-96.76578,"holes":null,"par":null,"city":null,"state":null,"street":null,"postcode":null,"phone":null,"website":null,"access":null},{"id":"w449108205","name":"A. L. Gustin Golf Course","lat":38.93243,"lon":-92.34752,"holes":null,"par":null,"city":"Columbia","state":null,"street":"18 Stadium Boulevard","postcode":"65211","phone":"+1 573 882 6016","website":"https://www.gustingolfcourse.com/","access":null},{"id":"r1249091","name":"A.C. Read Golf Course","lat":30.36343,"lon":-87.282,"holes":null,"par":null,"city":null,"state":null,"street":null,"postcode":null,"phone":null,"website":"https://www.navymwrpensacola.com/programs/6e429faf-c74d-44dc-9690-b872b66401cc","access":null},{"id":"n13861258844","name":"Abandoned Cardinal Hill Golf Course","lat":39.26171,"lon":-94.41028,"holes":null,"par":null,"city":null,"state":null,"street":null,"postcode":null,"phone":null,"website":null,"access":null},{"id":"r19648702","name":"Abenakee Golf Club","lat":43.44749,"lon":-70.34392,"holes":9,"par":36,"city":null,"state":null,"street":null,"postcode":null,"phone":null,"website":null,"access":"private"},{"id":"w320111052","name":"Abenaqui Country Club","lat":42.97721,"lon":-70.77619,"holes":18,"par":72,"city":"Rye Beach","state":null,"street":"731 Central Road","postcode":"03871","phone":"+1-603-964-5563","website":"https://www.abenaquicc.com/","access":null},{"id":"w1418369168","name":"Aberdeen Country Club","lat":33.82945,"lon":-88.57046,"holes":null,"par":null,"city":null,"state":null,"street":null,"postcode":null,"phone":null,"website":null,"access":null},{"id":"r4063768","name":"Aberdeen Golf & Country Club","lat":26.55152,"lon":-80.15955,"holes":null,"par":null,"city":"Boynton Beach","state":null,"street":"8251 Aberdeen Drive","postcode":"33472","phone":"+1-561-738-4903","website":"https://www.aberdeencountryclub.com/","access":null},{"id":"w365165191","name":"Aberdeen Golf Club","lat":38.53365,"lon":-90.61937,"holes":null,"par":null,"city":"Eureka","state":null,"street":"4111 Crescent Road","postcode":"63025","phone":"+1 636 938 5465","website":"https://www.aberdeengolf.com/","access":null},{"id":"r4004095","name":"Abita Springs Golf Club","lat":30.50018,"lon":-89.95297,"holes":null,"par":null,"city":"Abita Springs","state":null,"street":"73433 Oliver Street","postcode":"70420","phone":"+1 985-893-2463","website":"http://www.abitagolf.com/","access":null},{"id":"w240315311","name":"Abitibi Golf Club","lat":48.76328,"lon":-80.678,"holes":null,"par":null,"city":"Iroquois Falls","state":null,"street":"101 Park St","postcode":"P0K 1E0","phone":null,"website":null,"access":null},{"id":"n2838921541","name":"Academy Course","lat":39.42787,"lon":-94.54925,"holes":null,"par":null,"city":null,"state":null,"street":null,"postcode":null,"phone":null,"website":null,"access":null},{"id":"w533470060","name":"Ackia Golf Course","lat":33.9732,"lon":-88.49977,"holes":null,"par":null,"city":null,"state":null,"street":null,"postcode":null,"phone":null,"website":null,"access":null},{"id":"w533470065","name":"Ackia Golf Course","lat":33.97304,"lon":-88.50644,"holes":null,"par":null,"city":null,"state":null,"street":null,"postcode":null,"phone":null,"website":null,"access":null},{"id":"w533470072","name":"Ackia Golf Course","lat":33.97653,"lon":-88.50103,"holes":null,"par":null,"city":null,"state":null,"street":null,"postcode":null,"phone":null,"website":null,"access":null},{"id":"w307593523","name":"Ackley Country Club","lat":42.54688,"lon":-93.049,"holes":null,"par":null,"city":null,"state":null,"street":null,"postcode":null,"phone":null,"website":null,"access":null},{"id":"w29871639","name":"Acoaxet Club","lat":41.51014,"lon":-71.10742,"holes":null,"par":null,"city":"Westport","state":null,"street":"152 Howland Road","postcode":"02790","phone":"+1 508-636-4782","website":"https://www.acoaxet.com/","access":null},{"id":"w204647734","name":"Acorn Park Golf Course","lat":43.38481,"lon":-92.94172,"holes":null,"par":null,"city":"Saint Ansgar","state":null,"street":"1426 Highway 105","postcode":"50472","phone":"+1 641-713-4450","website":"https://www.acornparkgolf.com/","access":null},{"id":"w29692593","name":"Acushnet River Valley Golf Course","lat":41.71727,"lon":-70.89384,"holes":null,"par":null,"city":"Acushnet","state":null,"street":"685 Main Street","postcode":"02743","phone":"+1-508-998-7777","website":"https://www.golfacushnet.com/","access":null},{"id":"r2727364","name":"Adam's Rib Ranch","lat":39.58039,"lon":-106.76813,"holes":null,"par":null,"city":null,"state":null,"street":null,"postcode":null,"phone":null,"website":"https://www.adamsribranch.com/","access":null},{"id":"w424862144","name":"Adams County Country Club","lat":38.79547,"lon":-83.53064,"holes":null,"par":null,"city":null,"state":null,"street":null,"postcode":null,"phone":null,"website":null,"access":null},{"id":"r6876811","name":"Adams Golf Course","lat":36.75243,"lon":-95.90702,"holes":null,"par":null,"city":null,"state":null,"street":null,"postcode":null,"phone":null,"website":null,"access":null},{"id":"w305297870","name":"Adams Springs Golf Course","lat":38.8495,"lon":-122.72512,"holes":null,"par":null,"city":null,"state":null,"street":null,"postcode":null,"phone":"+1 707-928-9992","website":"https://www.adamsspringsgolfcourse.com/","access":null},{"id":"w137694292","name":"Adirondack Golf And Country Club","lat":44.60826,"lon":-73.48229,"holes":null,"par":null,"city":null,"state":null,"street":null,"postcode":null,"phone":null,"website":null,"access":null},{"id":"w1019007685","name":"Adobe Wells Golf Course","lat":26.2378,"lon":-98.27055,"holes":null,"par":null,"city":null,"state":null,"street":null,"postcode":null,"phone":null,"website":null,"access":null},{"id":"w1019007686","name":"Adobe Wells Golf Course","lat":26.23446,"lon":-98.26807,"holes":null,"par":null,"city":null,"state":null,"street":null,"postcode":null,"phone":null,"website":null,"access":null},{"id":"w242307204","name":"Adrian Country Club","lat":43.6263,"lon":-95.9384,"holes":null,"par":null,"city":null,"state":null,"street":null,"postcode":null,"phone":null,"website":"http://www.adriancountryclub.com/","access":null},{"id":"w404167826","name":"Aeropines Golf Course","lat":36.79737,"lon":-76.02758,"holes":null,"par":null,"city":null,"state":null,"street":null,"postcode":null,"phone":null,"website":null,"access":null},{"id":"w186853812","name":"Aetna Springs Golf Course","lat":38.65771,"lon":-122.4817,"holes":null,"par":null,"city":null,"state":null,"street":null,"postcode":null,"phone":null,"website":null,"access":null},{"id":"w651851559","name":"Agate Beach Golf Course","lat":44.66676,"lon":-124.05327,"holes":null,"par":null,"city":null,"state":null,"street":null,"postcode":null,"phone":null,"website":null,"access":null},{"id":"r4124326","name":"Agawam Hunt","lat":41.83162,"lon":-71.35606,"holes":null,"par":null,"city":null,"state":null,"street":null,"postcode":null,"phone":"+1 401-434-3254","website":"https://www.agawamhunt.org/","access":null},{"id":"w29855930","name":"Agawam Municipal Golf Course","lat":42.07092,"lon":-72.68572,"holes":18,"par":71,"city":"Feeding Hills","state":null,"street":"128 Southwick Street","postcode":"01030","phone":"+1 413-786-2194","website":"https://www.agawamgolfcourse.com/","access":null},{"id":"w72145083","name":"Aguasabon Golf Course","lat":48.77521,"lon":-87.11271,"holes":null,"par":null,"city":null,"state":null,"street":null,"postcode":null,"phone":null,"website":"https://www.terracebaygolf.ca/","access":null},{"id":"w44367692","name":"Ahwanhee Estates and Country Club","lat":37.36935,"lon":-119.70138,"holes":null,"par":null,"city":null,"state":null,"street":null,"postcode":null,"phone":null,"website":null,"access":null},{"id":"r4292301","name":"Aiken Golf Club","lat":33.56136,"lon":-81.73717,"holes":null,"par":null,"city":"Aiken","state":null,"street":"555 Highland Park Avenue","postcode":"29801","phone":"+1-803-649-6029","website":"http://www.aikengolfclub.com/","access":null},{"id":"w445234120","name":"Ainsworth Municipal Golf Course","lat":42.563,"lon":-99.99195,"holes":null,"par":null,"city":"Ainsworth","state":null,"street":null,"postcode":"69210","phone":"+1 402 387 1658","website":"http://www.golfainsworth.com/","access":null},{"id":"w621714293","name":"Airport Driving Range","lat":43.54389,"lon":-72.95348,"holes":null,"par":null,"city":null,"state":null,"street":null,"postcode":null,"phone":null,"website":null,"access":null},{"id":"w1155264854","name":"Airport Driving Range","lat":42.94956,"lon":-78.72289,"holes":null,"par":null,"city":null,"state":null,"street":null,"postcode":null,"phone":null,"website":null,"access":null},{"id":"w701645306","name":"Airport Golf","lat":46.97179,"lon":-122.91458,"holes":null,"par":null,"city":null,"state":null,"street":null,"postcode":null,"phone":null,"website":null,"access":null},{"id":"w341360991","name":"Airport Golf Club","lat":48.0912,"lon":-105.57269,"holes":null,"par":null,"city":null,"state":null,"street":null,"postcode":null,"phone":null,"website":null,"access":null},{"id":"w262621848","name":"Airport Golf Course","lat":41.57333,"lon":-81.47469,"holes":null,"par":null,"city":null,"state":null,"street":null,"postcode":null,"phone":null,"website":null,"access":null},{"id":"w136670192","name":"Airway Meadows Golf Club","lat":43.1833,"lon":-73.63101,"holes":null,"par":null,"city":null,"state":null,"street":null,"postcode":null,"phone":null,"website":null,"access":null},{"id":"w478929310","name":"Akron Golf Club","lat":42.81901,"lon":-96.55963,"holes":null,"par":null,"city":"Akron","state":null,"street":"941 Country Club Drive","postcode":"51001","phone":"+1 712 568 3146","website":"https://akronia.org/index.aspx?NID=863","access":null},{"id":"r6411268","name":"Alamance Country Club","lat":36.09159,"lon":-79.48996,"holes":null,"par":null,"city":"Burlington","state":null,"street":"2402 Pineway Drive","postcode":"27215","phone":"+1 336 584 0345","website":"https://www.alamancecountryclub.com/","access":null},{"id":"w138756629","name":"Alapaha Golf Link & Driving Range","lat":41.94772,"lon":-74.01626,"holes":null,"par":null,"city":null,"state":null,"street":null,"postcode":null,"phone":null,"website":"https://thegolfcourses.net/golfcourses/NY/185640.htm","access":null},{"id":"r4052505","name":"Alaqua Country Club","lat":28.74716,"lon":-81.39818,"holes":null,"par":null,"city":"Longwood","state":null,"street":"2091 Alaqua Drive","postcode":"32779","phone":"+1-407-333-2582","website":"https://www.alaquacc.com/","access":null},{"id":"w294258360","name":"Albany 18 Hole Public Course","lat":45.62502,"lon":-94.56298,"holes":null,"par":null,"city":null,"state":null,"street":null,"postcode":null,"phone":null,"website":null,"access":null},{"id":"w763503560","name":"Albany Golf Club","lat":32.73441,"lon":-99.3011,"holes":null,"par":null,"city":null,"state":null,"street":null,"postcode":null,"phone":null,"website":"https://www.albanytxgolf.com/","access":null},{"id":"w129296323","name":"Albany Golf Course","lat":44.64349,"lon":-123.1021,"holes":null,"par":null,"city":null,"state":null,"street":null,"postcode":null,"phone":null,"website":null,"access":null},{"id":"w222586240","name":"Albany Golf Course","lat":25.0114,"lon":-77.50157,"holes":null,"par":null,"city":null,"state":null,"street":null,"postcode":null,"phone":null,"website":null,"access":null},{"id":"w452810070","name":"Alberni Golf Club","lat":49.289,"lon":-124.78455,"holes":null,"par":null,"city":null,"state":null,"street":null,"postcode":null,"phone":null,"website":null,"access":null},{"id":"w493484535","name":"Alberni Golf Club","lat":49.2903,"lon":-124.77895,"holes":null,"par":null,"city":null,"state":null,"street":null,"postcode":null,"phone":null,"website":null,"access":null},{"id":"w244377875","name":"Albertville Golf and Country Club","lat":34.29636,"lon":-86.19904,"holes":null,"par":null,"city":null,"state":null,"street":null,"postcode":null,"phone":null,"website":null,"access":null},{"id":"w477610759","name":"Albia Golf and Leisure","lat":41.03178,"lon":-92.78526,"holes":null,"par":null,"city":"Albia","state":null,"street":"300 Country Club Road","postcode":"52531","phone":"+1 641 932 5002","website":"http://www.albiagolfandleisure.com/","access":null},{"id":"w296308068","name":"Albion Country Club","lat":41.687,"lon":-98.02071,"holes":null,"par":null,"city":"Albion","state":null,"street":"2419 State Highway 91","postcode":"68620","phone":"+1-402-395-2493","website":"http://www.albioncountryclub.com/","access":null},{"id":"w807580095","name":"Albion Ridges Golf Course","lat":45.18295,"lon":-94.04775,"holes":null,"par":null,"city":null,"state":null,"street":null,"postcode":null,"phone":null,"website":null,"access":null},{"id":"w48385731","name":"Albuquerque Country Club","lat":35.09022,"lon":-106.67373,"holes":null,"par":null,"city":null,"state":null,"street":null,"postcode":null,"phone":"+1-505-243-7156; +1-505-247-4111","website":"https://www.albuquerquecountryclub.org/","access":"private"},{"id":"w141392094","name":"Alburg Golf Links","lat":44.90861,"lon":-73.30171,"holes":18,"par":72,"city":null,"state":null,"street":null,"postcode":null,"phone":"+1-802-796-3586","website":"https://alburggolflinks.com/","access":null},{"id":"w26444496","name":"Aldeen Golf Club","lat":42.29146,"lon":-88.98985,"holes":null,"par":null,"city":null,"state":null,"street":null,"postcode":null,"phone":null,"website":null,"access":null},{"id":"w551487869","name":"Alderbrook Golf Course","lat":45.51095,"lon":-123.85921,"holes":null,"par":null,"city":null,"state":null,"street":null,"postcode":null,"phone":null,"website":null,"access":null},{"id":"w321876930","name":"Alfred E. Smith Golf Course","lat":40.91282,"lon":-73.27692,"holes":null,"par":null,"city":null,"state":null,"street":null,"postcode":null,"phone":null,"website":null,"access":null},{"id":"w1132500301","name":"Algona Country Club","lat":43.07502,"lon":-94.25294,"holes":null,"par":null,"city":null,"state":null,"street":null,"postcode":null,"phone":null,"website":null,"access":null},{"id":"w43586651","name":"Algonkian Regional Park Golf Course","lat":39.05787,"lon":-77.37479,"holes":null,"par":null,"city":null,"state":null,"street":null,"postcode":null,"phone":null,"website":null,"access":null},{"id":"w42765424","name":"Algonquin Golf Club","lat":38.59028,"lon":-90.37313,"holes":null,"par":null,"city":null,"state":null,"street":null,"postcode":null,"phone":null,"website":null,"access":null},{"id":"w448564302","name":"Algonquin Golf Course","lat":45.08175,"lon":-67.07242,"holes":null,"par":null,"city":null,"state":null,"street":null,"postcode":null,"phone":"+1-506-529-8165","website":"https://www.algonquinresort.com/golf","access":null},{"id":"r1833988","name":"Aliante Golf Club","lat":36.29847,"lon":-115.18224,"holes":18,"par":72,"city":null,"state":null,"street":null,"postcode":null,"phone":"+1-702-399-4888","website":"https://www.aliantegolf.com/","access":"private"},{"id":"w230769962","name":"Alisal Ranch Course","lat":34.57352,"lon":-120.14474,"holes":null,"par":null,"city":null,"state":null,"street":null,"postcode":null,"phone":null,"website":null,"access":null},{"id":"w65251672","name":"Aliso Viejo Resort and Golf Course","lat":33.60151,"lon":-117.7277,"holes":null,"par":null,"city":null,"state":null,"street":null,"postcode":null,"phone":null,"website":null,"access":null},{"id":"w632656515","name":"All Seasons Driving Range","lat":40.00357,"lon":-82.00254,"holes":null,"par":null,"city":null,"state":null,"street":null,"postcode":null,"phone":null,"website":null,"access":null},{"id":"w237469137","name":"All Vets Golf Course","lat":43.13833,"lon":-93.41749,"holes":null,"par":null,"city":null,"state":null,"street":null,"postcode":null,"phone":null,"website":null,"access":null},{"id":"w623647896","name":"Allen County Country Club","lat":37.92582,"lon":-95.35653,"holes":null,"par":null,"city":null,"state":null,"street":null,"postcode":null,"phone":null,"website":null,"access":null},{"id":"w29695489","name":"Allendale Country Club","lat":41.62558,"lon":-70.97355,"holes":18,"par":72,"city":"North Dartmouth","state":null,"street":"1047 Allen Street","postcode":"02747","phone":"+1-508-992-8682","website":"https://www.allendalecc.net/","access":null},{"id":"w23143257","name":"Allenmore Golf Course","lat":47.23913,"lon":-122.47268,"holes":null,"par":null,"city":null,"state":null,"street":null,"postcode":null,"phone":null,"website":null,"access":null},{"id":"w40181902","name":"Allentown Municipal Golf Course","lat":40.59886,"lon":-75.53829,"holes":null,"par":null,"city":null,"state":null,"street":null,"postcode":null,"phone":null,"website":null,"access":null},{"id":"w617216486","name":"Alley Pond Golf Center","lat":40.76527,"lon":-73.74876,"holes":null,"par":null,"city":null,"state":null,"street":null,"postcode":null,"phone":null,"website":null,"access":null},{"id":"w361885248","name":"Alliance Country Club","lat":40.89122,"lon":-81.09499,"holes":null,"par":null,"city":"Alliance","state":null,"street":"725 East Milton Street","postcode":"44601","phone":"+1 330 823 1010","website":"https://www.alliancecountryclub.com/","access":null},{"id":"w822291424","name":"Alliance Municipal Golf Course","lat":42.06777,"lon":-102.81098,"holes":null,"par":null,"city":null,"state":null,"street":null,"postcode":null,"phone":null,"website":null,"access":null},{"id":"w292610193","name":"Almaguin Highlands Golf & Country Club","lat":45.56706,"lon":-79.34329,"holes":null,"par":null,"city":"Katrine","state":null,"street":"78 Golf Course Road","postcode":"P0A 1L0","phone":null,"website":null,"access":null},{"id":"w33167195","name":"Alpine Country Club","lat":40.42627,"lon":-111.78003,"holes":null,"par":null,"city":null,"state":null,"street":null,"postcode":null,"phone":"+1 801 572 3817","website":"https://www.alpinecountryclub.org/","access":"private"},{"id":"w141111875","name":"Alpine Country Club","lat":41.78201,"lon":-71.55409,"holes":18,"par":72,"city":null,"state":null,"street":null,"postcode":null,"phone":"+1-401-943-2670","website":"https://www.alpinecc.com/","access":null},{"id":"w299070913","name":"Alpine Lake Resort Golf Course","lat":39.46203,"lon":-79.50068,"holes":null,"par":null,"city":null,"state":null,"street":null,"postcode":null,"phone":null,"website":"https://www.alpinelake.com/golf","access":null},{"id":"r12166431","name":"Alpine Resort Golf Course","lat":45.04281,"lon":-87.29661,"holes":null,"par":null,"city":"Egg Harbor","state":null,"street":"7715 Alpine Road","postcode":"54209","phone":"+1-877-318-8773","website":"https://www.alpineresort.com/","access":null},{"id":"w817423771","name":"Alpine Target Golf Center","lat":32.5349,"lon":-94.70451,"holes":null,"par":null,"city":null,"state":null,"street":null,"postcode":null,"phone":null,"website":null,"access":null},{"id":"w758644689","name":"Alpine Valley Resort","lat":42.7382,"lon":-88.43052,"holes":null,"par":null,"city":null,"state":null,"street":null,"postcode":null,"phone":null,"website":null,"access":null},{"id":"w296975094","name":"Alta Golf and Country Club","lat":42.66942,"lon":-95.29673,"holes":null,"par":null,"city":null,"state":null,"street":null,"postcode":null,"phone":null,"website":null,"access":null},{"id":"r5959483","name":"Alta Lake Golf Resort","lat":48.0377,"lon":-119.93421,"holes":null,"par":null,"city":null,"state":null,"street":null,"postcode":null,"phone":null,"website":null,"access":null},{"id":"r17521279","name":"Alta Sierra Country Club","lat":39.13769,"lon":-121.0487,"holes":null,"par":null,"city":null,"state":null,"street":null,"postcode":null,"phone":null,"website":null,"access":null},{"id":"w267086223","name":"Alto Lakes Golf & Country Club","lat":33.40233,"lon":-105.66525,"holes":null,"par":null,"city":null,"state":null,"street":null,"postcode":null,"phone":"+1-575-336-4232","website":"https://www.altolakesgolf.com/Club-Amenities/Golf/Alto-Lakes.aspx","access":"private"},{"id":"w178191915","name":"Alwyn Downs Golf Club","lat":42.25732,"lon":-84.95901,"holes":null,"par":null,"city":null,"state":null,"street":null,"postcode":null,"phone":null,"website":"https://alwyndowns.webs.com/","access":null},{"id":"w731221353","name":"Amana Colonies Golf Course","lat":41.81404,"lon":-91.90963,"holes":null,"par":null,"city":null,"state":null,"street":null,"postcode":null,"phone":null,"website":null,"access":null},{"id":"w492879856","name":"Amaze Zing Golf","lat":43.05426,"lon":-124.13111,"holes":null,"par":null,"city":null,"state":null,"street":null,"postcode":null,"phone":null,"website":null,"access":null},{"id":"w23425470","name":"Ambassador Golf Club","lat":42.25197,"lon":-83.08321,"holes":null,"par":null,"city":null,"state":null,"street":null,"postcode":null,"phone":null,"website":null,"access":null},{"id":"w76271951","name":"Amberwood Village Golf and Country Club","lat":45.26943,"lon":-75.92179,"holes":null,"par":null,"city":null,"state":null,"street":null,"postcode":null,"phone":null,"website":null,"access":null},{"id":"w1089562431","name":"Amelia Golf & Country Club","lat":37.35238,"lon":-77.96485,"holes":null,"par":null,"city":null,"state":null,"street":null,"postcode":null,"phone":null,"website":null,"access":null},{"id":"w505656427","name":"American Classic Golf Club","lat":38.73494,"lon":-75.14499,"holes":null,"par":null,"city":null,"state":null,"street":null,"postcode":null,"phone":null,"website":null,"access":null},{"id":"w372534251","name":"American Falls Golf Club","lat":42.78188,"lon":-112.86049,"holes":null,"par":null,"city":null,"state":null,"street":null,"postcode":null,"phone":null,"website":null,"access":null},{"id":"r4056444","name":"American Golf Club","lat":27.59866,"lon":-80.37676,"holes":null,"par":null,"city":"Vero Beach","state":null,"street":"100 Woodland Drive","postcode":"32962","phone":"+1-772-569-5554","website":"http://www.americangolfclubverobeach.com/","access":null},{"id":"n8360972025","name":"American Legion Country Club","lat":40.36563,"lon":-77.82278,"holes":null,"par":null,"city":null,"state":null,"street":null,"postcode":null,"phone":null,"website":null,"access":null},{"id":"w478329415","name":"American Legion Country Club","lat":40.74688,"lon":-95.37489,"holes":null,"par":null,"city":"Shenandoah","state":null,"street":"1800 South Elm Street","postcode":"51601","phone":"+1 712 246 3308","website":"https://www.shenandoahiowagolf.com/","access":null},{"id":"w149092035","name":"American Legion Golf Course","lat":42.03288,"lon":-92.92704,"holes":null,"par":null,"city":null,"state":null,"street":null,"postcode":null,"phone":null,"website":null,"access":null},{"id":"w152635627","name":"American Legion Golf Course","lat":40.45872,"lon":-86.12239,"holes":null,"par":null,"city":null,"state":null,"street":null,"postcode":null,"phone":null,"website":null,"access":null},{"id":"w386240532","name":"American Legion Golf Course","lat":39.70035,"lon":-91.40154,"holes":null,"par":null,"city":null,"state":null,"street":null,"postcode":null,"phone":null,"website":null,"access":null},{"id":"r7145495","name":"Amery Golf Club","lat":45.3014,"lon":-92.37613,"holes":null,"par":null,"city":null,"state":null,"street":null,"postcode":null,"phone":null,"website":null,"access":null},{"id":"w157010125","name":"Ames Golf & Country Club","lat":42.0743,"lon":-93.6545,"holes":null,"par":null,"city":"Ames","state":null,"street":"5752 George Washington Carver Avenue","postcode":"50010","phone":"+1 515-232-8334","website":"https://www.amesgolfcc.com/","access":null},{"id":"w301867063","name":"Amesbury Golf and Country Club","lat":42.86153,"lon":-70.9121,"holes":9,"par":35,"city":null,"state":null,"street":null,"postcode":null,"phone":"+1 978 388 5153","website":"https://www.amesburycountryclub.com/","access":null},{"id":"w136707722","name":"Amherst Audubon Golf Course","lat":42.99566,"lon":-78.76888,"holes":null,"par":null,"city":null,"state":null,"street":null,"postcode":null,"phone":"+1 716-631-7139","website":"https://www.audubonamherstgolf.com/","access":null},{"id":"w29906730","name":"Amherst Golf Club","lat":42.36299,"lon":-72.52663,"holes":9,"par":35,"city":"Amherst","state":null,"street":"365 South Pleasant Street","postcode":"01002","phone":"+1 413 256 6894","website":"https://amherstgolfclub.org/","access":null},{"id":"w54585435","name":"Amherstview Golf Club","lat":44.23274,"lon":-76.6532,"holes":null,"par":null,"city":null,"state":null,"street":null,"postcode":null,"phone":null,"website":null,"access":null},{"id":"w533473062","name":"Amory Golf Course","lat":34.00179,"lon":-88.4721,"holes":null,"par":null,"city":null,"state":null,"street":null,"postcode":null,"phone":null,"website":null,"access":null},{"id":"w124813362","name":"Amsterdam Municipal Golf Course","lat":42.96168,"lon":-74.20094,"holes":null,"par":null,"city":null,"state":null,"street":null,"postcode":null,"phone":null,"website":null,"access":null},{"id":"w218011711","name":"Anaheim Hills Golf Course","lat":33.8435,"lon":-117.76608,"holes":null,"par":null,"city":"Anaheim","state":null,"street":"6501 East Nohl Ranch Road","postcode":"92807","phone":"+1-714-998-3041","website":"https://www.anaheimhillsgc.com/","access":null},{"id":"r1405040","name":"Ancala Country Club","lat":33.59629,"lon":-111.82894,"holes":18,"par":72,"city":null,"state":null,"street":null,"postcode":null,"phone":"+1-480-391-1000","website":"https://www.ancalacc.com/","access":"private"},{"id":"w100290604","name":"Anchored Soul Golf","lat":39.95015,"lon":-76.63542,"holes":null,"par":null,"city":null,"state":null,"street":null,"postcode":null,"phone":null,"website":null,"access":null},{"id":"w35451595","name":"Ancien club de golf le Boisé","lat":45.71698,"lon":-73.6328,"holes":null,"par":null,"city":null,"state":null,"street":null,"postcode":null,"phone":null,"website":null,"access":null},{"id":"w35492924","name":"Ancien Club de golf Mascouche (FERMÉ)","lat":45.7425,"lon":-73.64016,"holes":null,"par":null,"city":null,"state":null,"street":null,"postcode":null,"phone":null,"website":null,"access":null},{"id":"r19087248","name":"Andalusia Country Club","lat":31.31646,"lon":-86.51411,"holes":null,"par":null,"city":null,"state":null,"street":null,"postcode":null,"phone":null,"website":null,"access":null},{"id":"w363463332","name":"Anderson Country Club","lat":40.12501,"lon":-85.68656,"holes":null,"par":null,"city":"Anderson","state":null,"street":"602 Northshore Boulevard","postcode":"46011","phone":"+1 765 642 0100","website":"https://andersoncountryclub.net/","access":null},{"id":"r6392871","name":"Anderson Creek Club","lat":35.29043,"lon":-78.9697,"holes":null,"par":null,"city":"Spring Lake","state":null,"street":"125 Whispering Pines Drive","postcode":"28390","phone":"+1 910 814 2115","website":"https://andersoncreekclub.com","access":null},{"id":"w295902620","name":"Anderson Fields Golf Course","lat":41.14581,"lon":-88.83349,"holes":null,"par":null,"city":"Streator","state":null,"street":"1901 North Bloomington Street","postcode":"61364","phone":"+1-815-672-3702","website":"https://www.ci.streator.il.us/anderson-fields.php","access":null},{"id":"w244575683","name":"Anderson Links","lat":45.35219,"lon":-75.52417,"holes":null,"par":null,"city":null,"state":null,"street":"4175 Anderson Road","postcode":"K0A 1K0","phone":"+1-613-822-9477","website":"https://www.andersonlinks.com/","access":null},{"id":"w264546240","name":"Andover Country Club","lat":42.66875,"lon":-71.1705,"holes":null,"par":null,"city":null,"state":null,"street":null,"postcode":null,"phone":null,"website":"http://www.andovercountryclub.com/","access":null},{"id":"r3959251","name":"Andover Golf & Country Club","lat":38.00224,"lon":-84.41497,"holes":null,"par":null,"city":"Lexington","state":null,"street":"3450 Todds Road","postcode":"40509","phone":"+1-859-263-3710","website":"https://www.golfandover.com/","access":null},{"id":"w1036443730","name":"Andover Public Golf Course","lat":41.59418,"lon":-80.56669,"holes":null,"par":null,"city":null,"state":null,"street":null,"postcode":null,"phone":null,"website":null,"access":null},{"id":"w1194838413","name":"Andrew Johnson Golf Club","lat":36.13267,"lon":-82.86525,"holes":null,"par":null,"city":null,"state":null,"street":null,"postcode":null,"phone":null,"website":null,"access":null},{"id":"r1285319","name":"Andrews East Course","lat":38.79037,"lon":-76.87969,"holes":null,"par":null,"city":null,"state":null,"street":null,"postcode":null,"phone":null,"website":"http://www.aafbgc.com/course_info/East_Course_Layout.asp","access":null},{"id":"r1285320","name":"Andrews South Course","lat":38.78758,"lon":-76.8756,"holes":null,"par":null,"city":null,"state":null,"street":null,"postcode":null,"phone":null,"website":"http://www.aafbgc.com/","access":null},{"id":"w1206422204","name":"Androscoggin Valley Country Club","lat":44.3876,"lon":-71.15719,"holes":18,"par":70,"city":null,"state":null,"street":null,"postcode":null,"phone":"+1 603 466 9468","website":"https://avccgolf.com/home","access":null},{"id":"w32266179","name":"Andy Bathgate Golf Driving Range","lat":43.61859,"lon":-79.63613,"holes":null,"par":null,"city":null,"state":null,"street":null,"postcode":null,"phone":null,"website":null,"access":null},{"id":"w452911791","name":"Angel Hill GC","lat":40.4279,"lon":-86.59736,"holes":null,"par":null,"city":null,"state":null,"street":null,"postcode":null,"phone":null,"website":null,"access":null},{"id":"w452911792","name":"Angel Hill GC","lat":40.43269,"lon":-86.59967,"holes":null,"par":null,"city":null,"state":null,"street":null,"postcode":null,"phone":null,"website":null,"access":null},{"id":"w1382635695","name":"Angel Park Golf Club - Palm","lat":36.18131,"lon":-115.28383,"holes":null,"par":null,"city":null,"state":null,"street":null,"postcode":null,"phone":null,"website":null,"access":null},{"id":"w137464924","name":"Anglebrook Golf Club","lat":41.31502,"lon":-73.72503,"holes":null,"par":null,"city":"Lincolndale","state":null,"street":"100 Route 202","postcode":"10540","phone":"+1-914-245-5588","website":"https://www.anglebrookgc.com/","access":"customers"},{"id":"n3017293892","name":"Angus Glen - South Course","lat":43.89692,"lon":-79.32533,"holes":null,"par":null,"city":null,"state":null,"street":null,"postcode":null,"phone":null,"website":null,"access":null},{"id":"r16662983","name":"Angus Glen Golf Club","lat":43.89839,"lon":-79.3327,"holes":null,"par":null,"city":"Markham","state":null,"street":"10080 Kennedy Road","postcode":"L6C 1N9","phone":null,"website":"https://angusglen.com/","access":null},{"id":"w436648206","name":"Angushire Golf Club","lat":45.54627,"lon":-94.21128,"holes":null,"par":null,"city":null,"state":null,"street":null,"postcode":null,"phone":null,"website":null,"access":null},{"id":"w474079222","name":"Angushire Golf Club","lat":45.54405,"lon":-94.20756,"holes":null,"par":null,"city":null,"state":null,"street":null,"postcode":null,"phone":null,"website":null,"access":null},{"id":"w263921125","name":"Ann Arbor Golf and Outing Club","lat":42.26242,"lon":-83.74765,"holes":null,"par":null,"city":null,"state":null,"street":null,"postcode":null,"phone":null,"website":"https://www.aagoc.org/","access":null},{"id":"r3990650","name":"Annandale Golf Club","lat":32.49392,"lon":-90.19505,"holes":null,"par":null,"city":"Madison","state":null,"street":"100 Annandale Golf Club Drive","postcode":"39110","phone":null,"website":"https://www.theannandalegolfclub.com/","access":null},{"id":"w266490129","name":"Anne Arundell Manor","lat":38.85513,"lon":-76.66695,"holes":null,"par":null,"city":null,"state":null,"street":null,"postcode":null,"phone":null,"website":null,"access":null},{"id":"w542172234","name":"Anneberg Golf Course","lat":33.7762,"lon":-116.41273,"holes":null,"par":null,"city":null,"state":null,"street":null,"postcode":null,"phone":null,"website":null,"access":null},{"id":"w112355260","name":"Anniston Country Club","lat":33.64856,"lon":-85.81535,"holes":null,"par":null,"city":null,"state":null,"street":null,"postcode":null,"phone":null,"website":null,"access":null},{"id":"r143001","name":"Ansley Golf Club","lat":33.80193,"lon":-84.37656,"holes":null,"par":null,"city":null,"state":null,"street":null,"postcode":null,"phone":null,"website":null,"access":null},{"id":"w1109059683","name":"Ansley Golf Club - Settindown","lat":34.10215,"lon":-84.4217,"holes":null,"par":null,"city":null,"state":null,"street":"1608 Settindown Drive","postcode":null,"phone":null,"website":null,"access":null},{"id":"w265942998","name":"Antelope Greens Golf Course","lat":38.71892,"lon":-121.39833,"holes":null,"par":null,"city":null,"state":null,"street":null,"postcode":null,"phone":"+1-916-334-5764","website":"https://antelopegreensgolf.com/","access":null},{"id":"w208642350","name":"Antelope Valley Country Club","lat":34.60914,"lon":-118.13884,"holes":null,"par":null,"city":null,"state":null,"street":null,"postcode":null,"phone":"+1-661-947-3142","website":"http://www.antelopevalleycc.com/","access":"private"},{"id":"r3947490","name":"Anthem Country Club","lat":35.96572,"lon":-115.08302,"holes":18,"par":72,"city":"Henderson","state":null,"street":"1 Club Side Drive","postcode":"89052","phone":"+17026145050","website":"https://www.anthemcc.com/","access":"private"},{"id":"w296975095","name":"Anthon Golf Club","lat":42.38024,"lon":-95.87121,"holes":null,"par":null,"city":null,"state":null,"street":null,"postcode":null,"phone":null,"website":null,"access":null},{"id":"r14936825","name":"Apawamis Golf Club","lat":40.98844,"lon":-73.69531,"holes":null,"par":null,"city":null,"state":null,"street":null,"postcode":null,"phone":null,"website":null,"access":null},{"id":"w463890497","name":"Aplington Recreation Complex","lat":42.58191,"lon":-92.89546,"holes":null,"par":null,"city":null,"state":null,"street":null,"postcode":null,"phone":null,"website":null,"access":null},{"id":"w217490430","name":"Apollo Valley Golf Club","lat":43.24103,"lon":-80.19619,"holes":null,"par":null,"city":"Brant","state":null,"street":"2462 Concession 2 West","postcode":"L0R 2B0","phone":"+1-519-647-2069","website":"http://apollovalley.com","access":null},{"id":"r3935319","name":"Apple Canyon Lake Golf Course","lat":42.41518,"lon":-90.15467,"holes":null,"par":null,"city":"Apple River","state":null,"street":"14A200 East Apple Canyon Road","postcode":"61001","phone":"+1 815-492-2477","website":"https://www.applecanyonlake.org/amenities/golf.php","access":null},{"id":"w48057195","name":"Apple Creek Country Club","lat":46.80521,"lon":-100.64843,"holes":null,"par":null,"city":null,"state":null,"street":null,"postcode":null,"phone":null,"website":null,"access":null},{"id":"n13319745389","name":"Apple Creek Golf Course","lat":37.63078,"lon":-89.22461,"holes":null,"par":null,"city":null,"state":null,"street":null,"postcode":null,"phone":null,"website":null,"access":null},{"id":"w320123435","name":"Apple Hill Golf Club","lat":42.92218,"lon":-70.9822,"holes":18,"par":70,"city":"East Kingston","state":null,"street":"69 East Road","postcode":"03827","phone":"+1-603-642-4414","website":"http://applehillgolf.com/","access":null},{"id":"w1180963721","name":"Apple Island Resort Golf Club","lat":44.63629,"lon":-73.27219,"holes":9,"par":27,"city":null,"state":null,"street":null,"postcode":null,"phone":"+1-802-372-9600","website":"https://appleislandresort.com/apple-island-golf-course-on-lake-champlain-in-vermont/","access":null},{"id":"w1066874535","name":"Apple Mountain Golf Club","lat":34.63592,"lon":-83.45852,"holes":null,"par":null,"city":null,"state":null,"street":null,"postcode":null,"phone":null,"website":null,"access":null},{"id":"r8064375","name":"Apple Rock","lat":30.54616,"lon":-98.40168,"holes":null,"par":null,"city":null,"state":null,"street":null,"postcode":null,"phone":null,"website":"https://www.hsbresort.com/golf/apple-rock.aspx","access":null},{"id":"r10698529","name":"Apple Tree Golf Course & Resort","lat":46.56315,"lon":-120.63399,"holes":null,"par":null,"city":null,"state":null,"street":null,"postcode":null,"phone":null,"website":null,"access":null},{"id":"w299169414","name":"Apple Valley Country Club Golf Course","lat":39.40096,"lon":-80.17548,"holes":null,"par":null,"city":null,"state":null,"street":null,"postcode":null,"phone":null,"website":null,"access":null},{"id":"w293249043","name":"Apple Valley Golf Course","lat":44.30791,"lon":-84.20886,"holes":null,"par":null,"city":null,"state":null,"street":null,"postcode":null,"phone":null,"website":null,"access":null},{"id":"r4077563","name":"Apple Valley Golf Course","lat":34.52272,"lon":-117.231,"holes":null,"par":null,"city":"Apple Valley","state":null,"street":"15200 Rancherias Road","postcode":"92307","phone":"+1-760-242-3125","website":"https://www.applevalleygolfclub.com/","access":null},{"id":"n13069462116","name":"Applecross Country Club","lat":40.0265,"lon":-75.77823,"holes":null,"par":null,"city":null,"state":null,"street":null,"postcode":null,"phone":null,"website":"https://applecrosscc.com/","access":null},{"id":"n8197911202","name":"Appleton Indoor Golf","lat":44.2601,"lon":-88.45741,"holes":null,"par":null,"city":null,"state":null,"street":null,"postcode":null,"phone":null,"website":null,"access":null},{"id":"w1502727726","name":"Applewood Course","lat":33.19592,"lon":-82.07403,"holes":null,"par":null,"city":null,"state":null,"street":null,"postcode":null,"phone":null,"website":null,"access":null},{"id":"w33195406","name":"Applewood Golf Course","lat":39.76543,"lon":-105.15664,"holes":null,"par":null,"city":null,"state":null,"street":null,"postcode":null,"phone":null,"website":null,"access":null},{"id":"w296377718","name":"Applewood Hills Golf Course","lat":45.03985,"lon":-92.86824,"holes":null,"par":null,"city":"Stillwater","state":null,"street":"11840 60th Street North","postcode":"55082","phone":"+1-651-439-7276","website":"https://www.applewoodhillsgolf.com/","access":null},{"id":"r4055120","name":"Aquarina Country Club","lat":27.92291,"lon":-80.48713,"holes":null,"par":null,"city":"Melbourne Beach","state":null,"street":"7500 South Highway A1A","postcode":"32951","phone":"+1-321-676-8923","website":"http://www.aquarinagolf.com/","access":null},{"id":"r13805080","name":"Aquia Harbour Golf Club","lat":38.47066,"lon":-77.37276,"holes":null,"par":null,"city":null,"state":null,"street":"204 Bow Cove","postcode":null,"phone":"+1-540-659-4478","website":"https://aquiagolf.com/","access":null},{"id":"w90966780","name":"Arbor Hills Golf Club","lat":42.22935,"lon":-84.48748,"holes":null,"par":null,"city":null,"state":null,"street":null,"postcode":null,"phone":null,"website":"https://www.arborhillsgolfclub.com/","access":null},{"id":"w442097372","name":"Arbor Pointe Golf Club","lat":44.82185,"lon":-93.04418,"holes":null,"par":null,"city":"Inver Grove Heights","state":null,"street":"8919 Cahill Avenue","postcode":"55076","phone":"+1-651-451-9678","website":"https://www.arborpointegolf.com/","access":null},{"id":"w442097376","name":"Arbor Pointe Golf Club","lat":44.82566,"lon":-93.04831,"holes":null,"par":null,"city":"Inver Grove Heights","state":null,"street":"8919 Cahill Avenue","postcode":"55076","phone":"+1-651-451-9678","website":"https://www.arborpointegolf.com/","access":null},{"id":"w44388854","name":"Arbuckle Golf Course","lat":39.00841,"lon":-122.14091,"holes":null,"par":null,"city":null,"state":null,"street":null,"postcode":null,"phone":null,"website":null,"access":null},{"id":"r907311","name":"Arbutus Ridge Golf and Country Club","lat":48.68816,"lon":-123.54773,"holes":null,"par":null,"city":null,"state":null,"street":null,"postcode":null,"phone":null,"website":null,"access":null},{"id":"w292500394","name":"Arcadia Country Club","lat":44.25288,"lon":-91.47744,"holes":null,"par":null,"city":"Arcadia","state":null,"street":"340 Golf Lane","postcode":"54612","phone":"+1-608-323-3626","website":"https://arcadiacountryclub.com/","access":null},{"id":"w305753776","name":"Arcadia Par 3 Golf Course","lat":34.10304,"lon":-118.01788,"holes":null,"par":null,"city":"Arcadia","state":null,"street":"620 East Live Oak Avenue","postcode":"91006","phone":"+1-626-443-9367","website":"https://arcadiagc.com/","access":null},{"id":"w479391650","name":"Arcadian Shores Golf Club","lat":33.77747,"lon":-78.78016,"holes":null,"par":null,"city":null,"state":null,"street":null,"postcode":null,"phone":null,"website":null,"access":null},{"id":"w92195966","name":"Archie's Family Golf Centre","lat":45.03314,"lon":-74.76857,"holes":null,"par":null,"city":null,"state":null,"street":null,"postcode":null,"phone":null,"website":null,"access":null},{"id":"w42062157","name":"Architects Golf Club","lat":40.70984,"lon":-75.14778,"holes":null,"par":null,"city":null,"state":null,"street":null,"postcode":null,"phone":null,"website":null,"access":null},{"id":"w41914877","name":"Arcola Country Club","lat":40.92786,"lon":-74.08258,"holes":null,"par":null,"city":"Paramus","state":null,"street":"Paramus Road","postcode":"07653","phone":"+1 201-843-3990","website":"https://www.arcolacc.org/","access":null},{"id":"w151269713","name":"Ardmore Golf Course","lat":48.63526,"lon":-123.4621,"holes":null,"par":null,"city":null,"state":null,"street":null,"postcode":null,"phone":null,"website":null,"access":null},{"id":"r4120011","name":"Ardsley Country Club","lat":41.02377,"lon":-73.85888,"holes":null,"par":null,"city":"Ardsley-on-Hudson","state":null,"street":"North Mountain Drive","postcode":"10503","phone":"+1-914-591-8150","website":"https://www.ardsleycc.org/","access":null},{"id":"w178088851","name":"Ariss Valley Golf and Country Club","lat":43.56709,"lon":-80.36084,"holes":null,"par":null,"city":null,"state":null,"street":null,"postcode":null,"phone":null,"website":null,"access":null},{"id":"w61418760","name":"Arizona Country Club","lat":33.48506,"lon":-111.95648,"holes":18,"par":75,"city":null,"state":null,"street":null,"postcode":null,"phone":"+1-480-947-7666","website":"https://www.azcountryclub.com/","access":"private"},{"id":"w203435047","name":"Arkansas City Country Club","lat":37.07419,"lon":-97.00908,"holes":null,"par":null,"city":null,"state":null,"street":null,"postcode":null,"phone":null,"website":null,"access":null},{"id":"w40038468","name":"Arkona Fairways","lat":43.07651,"lon":-81.82527,"holes":null,"par":null,"city":"arkona","state":null,"street":"8562 Townsend Line","postcode":"N0M 1B0","phone":null,"website":null,"access":null},{"id":"w363657192","name":"Arlington Greens Golf Course","lat":38.71061,"lon":-90.03357,"holes":null,"par":null,"city":"Granite City","state":null,"street":"200 Arlington Drive","postcode":"62040","phone":"+1 618 931 5232","website":"https://www.arlingtongreens.com/","access":null},{"id":"w109198342","name":"Arlington Park Golf Course","lat":41.12871,"lon":-85.03174,"holes":null,"par":null,"city":null,"state":null,"street":null,"postcode":null,"phone":null,"website":null,"access":null},{"id":"w79882317","name":"Armco Park Golf Course","lat":39.45419,"lon":-84.28452,"holes":null,"par":null,"city":null,"state":null,"street":null,"postcode":null,"phone":null,"website":null,"access":null},{"id":"w5120636","name":"Armitage Golf Club","lat":40.26264,"lon":-76.96049,"holes":null,"par":null,"city":"Mechanicsburg","state":null,"street":"800 Orr's Bridge Road","postcode":"17050","phone":"+1 717-737-5344","website":"https://www.armitagegolfclub.com/","access":null},{"id":"w44818252","name":"Army Navy Country Club","lat":38.85521,"lon":-77.07713,"holes":18,"par":null,"city":null,"state":null,"street":null,"postcode":null,"phone":null,"website":null,"access":null},{"id":"w49301295","name":"Army Navy Country Club","lat":38.85605,"lon":-77.27812,"holes":null,"par":null,"city":"Fairfax","state":null,"street":"3315 Old Lee Highway","postcode":"22030","phone":"+1-703-359-5825","website":"http://www.ancc.org/","access":null},{"id":"w487441984","name":"Arnold Golf Course","lat":41.4053,"lon":-100.18714,"holes":null,"par":null,"city":null,"state":null,"street":null,"postcode":null,"phone":null,"website":null,"access":null},{"id":"r4082110","name":"Arnold Palmer Course","lat":33.79294,"lon":-116.42381,"holes":null,"par":null,"city":null,"state":null,"street":null,"postcode":null,"phone":"+1-760-324-9400","website":"https://www.clubcorp.com/Clubs/Mission-Hills-Country-Club/","access":null},{"id":"r5940985","name":"Arnold Palmer Golf Course (PGA West)","lat":33.64934,"lon":-116.27268,"holes":null,"par":null,"city":null,"state":null,"street":null,"postcode":null,"phone":"+1-800-742-9378","website":"http://www.pgawest.com/","access":null},{"id":"w8075973","name":"Arnold's Golf Course","lat":41.02393,"lon":-76.32728,"holes":null,"par":null,"city":"Nescopeck","state":null,"street":"490B West 3rd Street","postcode":"18635","phone":"+1 570-752-7022","website":"https://www.arnoldscourse.com/","access":null},{"id":"r9474270","name":"Aronimink Golf Club","lat":40.00835,"lon":-75.41005,"holes":null,"par":null,"city":null,"state":null,"street":null,"postcode":null,"phone":null,"website":null,"access":null},{"id":"w151673971","name":"Aroostook Valley Country Club","lat":46.80311,"lon":-67.78206,"holes":null,"par":null,"city":null,"state":null,"street":null,"postcode":null,"phone":null,"website":null,"access":null},{"id":"w40604805","name":"Arrowdale Public Golf Course","lat":43.15152,"lon":-80.24496,"holes":null,"par":null,"city":"Brantford","state":null,"street":"282 Stanley Street","postcode":null,"phone":null,"website":null,"access":null},{"id":"w255626994","name":"Arrowhead Club","lat":44.05229,"lon":-103.26817,"holes":null,"par":null,"city":null,"state":null,"street":null,"postcode":null,"phone":null,"website":"https://www.arrowheadccrc.com/","access":"private"},{"id":"w312446805","name":"Arrowhead Country Club","lat":40.92467,"lon":-89.60334,"holes":null,"par":null,"city":null,"state":null,"street":null,"postcode":null,"phone":null,"website":null,"access":null},{"id":"r6544171","name":"Arrowhead Country Club","lat":33.7063,"lon":-78.94988,"holes":null,"par":null,"city":null,"state":null,"street":null,"postcode":null,"phone":null,"website":null,"access":null},{"id":"r6997762","name":"Arrowhead Country Club","lat":32.3782,"lon":-86.13963,"holes":null,"par":null,"city":"Montgomery","state":null,"street":"50 Ocala Drive","postcode":"36117","phone":"+1 334 272 7180","website":"https://www.arrowheadcountryclub.net/","access":null},{"id":"w111668220","name":"Arrowhead Golf Club","lat":45.19979,"lon":-122.58717,"holes":null,"par":null,"city":null,"state":null,"street":null,"postcode":null,"phone":null,"website":null,"access":null},{"id":"w271669663","name":"Arrowhead Golf Club","lat":40.8645,"lon":-81.40821,"holes":null,"par":null,"city":null,"state":null,"street":null,"postcode":null,"phone":null,"website":null,"access":null},{"id":"w479745688","name":"Arrowhead Golf Club","lat":40.37831,"lon":-84.38722,"holes":null,"par":null,"city":null,"state":null,"street":null,"postcode":null,"phone":null,"website":null,"access":null},{"id":"w1082775452","name":"Arrowhead Golf Club","lat":43.01582,"lon":-78.52473,"holes":null,"par":null,"city":null,"state":null,"street":null,"postcode":null,"phone":null,"website":null,"access":null},{"id":"w1211720514","name":"Arrowhead Golf course","lat":40.30825,"lon":-75.75969,"holes":null,"par":null,"city":null,"state":null,"street":null,"postcode":null,"phone":null,"website":null,"access":null},{"id":"w31910491","name":"Arrowhead Golf Course","lat":41.82428,"lon":-88.13355,"holes":null,"par":null,"city":null,"state":null,"street":null,"postcode":null,"phone":null,"website":null,"access":null},{"id":"w140598551","name":"Arrowhead Golf Course","lat":26.26369,"lon":-81.70893,"holes":18,"par":72,"city":null,"state":null,"street":null,"postcode":null,"phone":"+1-239-596-1000","website":"https://www.arrowheadgolfnaples.com/","access":null},{"id":"w304084427","name":"Arrowhead Golf Course","lat":39.86732,"lon":-85.73337,"holes":null,"par":null,"city":null,"state":null,"street":null,"postcode":null,"phone":null,"website":null,"access":null},{"id":"w761913939","name":"Arrowhead Golf Course","lat":43.25455,"lon":-88.20863,"holes":null,"par":null,"city":null,"state":null,"street":null,"postcode":null,"phone":null,"website":null,"access":null},{"id":"w1202375064","name":"Arrowhead Golf Course","lat":43.12685,"lon":-76.02515,"holes":null,"par":null,"city":null,"state":null,"street":null,"postcode":null,"phone":null,"website":null,"access":null},{"id":"w363611164","name":"Arrowhead Heights Golf Course","lat":40.02991,"lon":-91.0721,"holes":null,"par":null,"city":"Camp Point","state":null,"street":"1403 South Main Street","postcode":"62320","phone":"+1 217 593 6619","website":"https://arrowheadheights.com/","access":null},{"id":"w868879429","name":"Arrowhead Heights Golf Course","lat":40.02382,"lon":-91.06487,"holes":null,"par":null,"city":null,"state":null,"street":null,"postcode":null,"phone":null,"website":null,"access":null},{"id":"w333461116","name":"Arrowhead Meadows Golf Course","lat":46.53752,"lon":-110.90275,"holes":null,"par":null,"city":null,"state":null,"street":null,"postcode":null,"phone":null,"website":null,"access":null},{"id":"w445388357","name":"Arrowhead Meadows Golf Course","lat":40.6315,"lon":-100.50514,"holes":null,"par":null,"city":null,"state":null,"street":null,"postcode":null,"phone":null,"website":"http://curtis-ne.com/arrowheadgolfcourse.php","access":null},{"id":"r11215970","name":"Arrowood Golf Course","lat":33.27097,"lon":-117.28801,"holes":18,"par":71,"city":"Oceanside","state":null,"street":"5201A 5201A Village Dr","postcode":"92057","phone":"+1 760-967-8400","website":"https://arrowoodgolf.com/","access":null},{"id":"w553881062","name":"Arrowsmith Golf and Country Club","lat":49.36617,"lon":-124.56696,"holes":null,"par":null,"city":null,"state":null,"street":null,"postcode":null,"phone":null,"website":null,"access":null},{"id":"w44486330","name":"Arroyo Fairways Mobile Home Club","lat":33.74565,"lon":-116.91304,"holes":null,"par":null,"city":null,"state":null,"street":null,"postcode":null,"phone":null,"website":null,"access":"private"},{"id":"r4423818","name":"Arsenal Island Golf Course","lat":41.51947,"lon":-90.5338,"holes":null,"par":null,"city":"Rock Island","state":null,"street":"1838 Gillespie Street","postcode":"61201","phone":"+1 309-793-1601","website":"http://www.arsenalislandgolf.com/","access":null},{"id":"w267095475","name":"Artesia Country Club","lat":32.85347,"lon":-104.4343,"holes":null,"par":null,"city":null,"state":null,"street":null,"postcode":null,"phone":"+1-575-746-6732","website":"http://www.artesiacountryclub.com/","access":null},{"id":"w146321252","name":"Arthur B. Sim Golf Course","lat":37.70059,"lon":-97.36693,"holes":null,"par":null,"city":null,"state":null,"street":null,"postcode":null,"phone":null,"website":null,"access":null},{"id":"r9932394","name":"Arthur Hills Championship Course","lat":39.78417,"lon":-74.22611,"holes":null,"par":null,"city":null,"state":null,"street":null,"postcode":null,"phone":null,"website":null,"access":null},{"id":"w468254248","name":"Ascarate Golf Course","lat":31.75342,"lon":-106.40911,"holes":null,"par":null,"city":null,"state":null,"street":null,"postcode":null,"phone":null,"website":null,"access":null},{"id":"r223730","name":"Ash Brook Golf Course","lat":40.61039,"lon":-74.36614,"holes":null,"par":null,"city":"Scotch Plains","state":null,"street":"1210 Raritan Road","postcode":"07076","phone":"+1 907 756 0414","website":"https://www.ashbrookgolfcourse.com/","access":null},{"id":"w445837034","name":"Ash Hollow Golf Course","lat":40.33924,"lon":-98.44146,"holes":null,"par":null,"city":"Blue Hill","state":null,"street":"433 North Willson Street","postcode":"68930","phone":"+1 402 756 2418","website":"http://www.golfashhollow.com/","access":null},{"id":"w352856783","name":"Asheboro Country Club","lat":35.72592,"lon":-79.92104,"holes":null,"par":null,"city":"Asheboro","state":null,"street":"5105 Old Lexington Road","postcode":"27205","phone":"+1-800-697-2143","website":"https://www.asheborocc.com/","access":null},{"id":"w352859928","name":"Asheboro Municipal Golf Course","lat":35.68482,"lon":-79.82057,"holes":null,"par":null,"city":"Asheboro","state":null,"street":"421 Country Club Drive","postcode":"27205","phone":"+1-336-625-4158","website":"https://www.ci.asheboro.nc.us/Recreation/golfcourse.html","access":null},{"id":"r6537726","name":"Asheville Municipal Golf Course","lat":35.58106,"lon":-82.5016,"holes":null,"par":null,"city":"Asheville","state":null,"street":"226 Fairway Drive","postcode":"28805","phone":"+1 828 298 1867","website":"https://www.ashevillenc.gov/Departments/ParksRecreation/ParksFacilitiesInventory/MunicipalGolfCourse.aspx","access":null},{"id":"w90776896","name":"Ashland Golf Club","lat":40.85354,"lon":-82.30047,"holes":null,"par":null,"city":"Ashland","state":null,"street":"1333 Center Street","postcode":"44805","phone":"+1-419-289-2917","website":"https://www.ashlandgolfclubohio.com/","access":null},{"id":"r5392822","name":"Ashley Plantation","lat":37.44058,"lon":-79.89484,"holes":null,"par":null,"city":"Daleville","state":null,"street":"919 Greenfield Street","postcode":"24083","phone":"+1 540 992 4653","website":"https://www.ashleyplantation.com/","access":null},{"id":"r4077543","name":"Ashwood Golf Course","lat":34.44839,"lon":-117.23691,"holes":null,"par":null,"city":"Apple Valley","state":null,"street":"10885 Apple Valley Road","postcode":"92308","phone":"+1-760-240-1800","website":"https://www.ashwoodgolf.com/","access":null},{"id":"w227810868","name":"Aspen Golf Course","lat":39.2005,"lon":-106.84176,"holes":null,"par":null,"city":null,"state":null,"street":null,"postcode":null,"phone":null,"website":null,"access":null},{"id":"w842299502","name":"Aspen Lakes Golf Course","lat":44.29905,"lon":-121.48315,"holes":null,"par":null,"city":null,"state":null,"street":null,"postcode":null,"phone":null,"website":null,"access":null},{"id":"w93327586","name":"Aspen Ridge Golf Course","lat":41.18103,"lon":-87.84202,"holes":null,"par":null,"city":null,"state":null,"street":null,"postcode":null,"phone":null,"website":null,"access":null},{"id":"w71275044","name":"Assiniboia Golf Course","lat":49.61402,"lon":-105.94901,"holes":null,"par":null,"city":null,"state":null,"street":null,"postcode":null,"phone":null,"website":null,"access":null},{"id":"w96216216","name":"Assiniboine Golf Club","lat":49.88718,"lon":-97.23294,"holes":null,"par":null,"city":null,"state":null,"street":null,"postcode":null,"phone":null,"website":null,"access":null},{"id":"r1536212","name":"Aston Oaks Golf Club","lat":39.15618,"lon":-84.72696,"holes":null,"par":null,"city":"North Bend","state":null,"street":"1 Aston Oaks Drive","postcode":"45052","phone":"+1-513-467-0070","website":"https://www.astonoaksgolfclub.com/","access":null},{"id":"w285375235","name":"Astoria Golf & Country Club","lat":46.105,"lon":-123.92544,"holes":null,"par":null,"city":null,"state":null,"street":null,"postcode":null,"phone":null,"website":null,"access":null},{"id":"w152163707","name":"ASU Driving Range","lat":33.30543,"lon":-111.6845,"holes":null,"par":null,"city":null,"state":null,"street":null,"postcode":null,"phone":null,"website":"https://tours.asu.edu/polytechnic/golf-driving-range-pro-shop","access":null},{"id":"w31385936","name":"Athens Country Club","lat":33.97836,"lon":-83.40705,"holes":null,"par":null,"city":null,"state":null,"street":null,"postcode":null,"phone":null,"website":null,"access":null},{"id":"w1290334864","name":"Atikwa Golf Club","lat":45.92793,"lon":-95.40527,"holes":18,"par":72,"city":null,"state":null,"street":null,"postcode":null,"phone":"+1-320-762-8337","website":"https://arrowwoodresort.com/recreation-golf","access":null},{"id":"w443670941","name":"Atkinson Resort & Country Club","lat":42.81936,"lon":-71.17642,"holes":null,"par":null,"city":"Atkinson","state":null,"street":"85 Country Club Drive","postcode":"03811","phone":"+1 603 362 8700","website":"https://www.atkinsonresort.com/","access":null},{"id":"w446415237","name":"Atkinson-Stuart Country Club","lat":42.54169,"lon":-99.00092,"holes":null,"par":null,"city":"Atkinson","state":null,"street":"47453 US 20","postcode":"68713","phone":"+1 402 925 5330","website":"http://atkinsonstuartcoun.wixsite.com/ascc","access":null},{"id":"w34768247","name":"Atlanta Athletic Club","lat":34.0015,"lon":-84.18891,"holes":null,"par":null,"city":"Johns Creek","state":null,"street":"1930 Bobby Jones Drive","postcode":"30097","phone":"+1-770-448-2166","website":"https://www.atlantaathleticclub.org/","access":"private"},{"id":"w34772919","name":"Atlanta Country Club Golf Course","lat":33.93544,"lon":-84.42933,"holes":null,"par":null,"city":null,"state":null,"street":null,"postcode":null,"phone":null,"website":null,"access":null},{"id":"w34773022","name":"Atlanta National Golf Club","lat":34.1271,"lon":-84.36314,"holes":null,"par":null,"city":null,"state":null,"street":"350 Tournament Players Drive","postcode":null,"phone":null,"website":null,"access":null},{"id":"r1853993","name":"Atlantic Beach Country Club","lat":30.34342,"lon":-81.40809,"holes":null,"par":null,"city":null,"state":null,"street":null,"postcode":null,"phone":null,"website":null,"access":null},{"id":"w40998504","name":"Atlantic City Golf Club","lat":39.3674,"lon":-74.54258,"holes":null,"par":null,"city":null,"state":null,"street":null,"postcode":null,"phone":null,"website":null,"access":null},{"id":"w311686876","name":"Atlantic Country Club","lat":41.79553,"lon":-70.59151,"holes":null,"par":null,"city":"Plymouth","state":null,"street":"450 Little Sandy Pond Road","postcode":"02560","phone":"+1 508-759-6644","website":"https://www.atlanticcountryclub.net/","access":null},{"id":"w297132019","name":"Atlantic Golf & Country Club","lat":41.38579,"lon":-95.02037,"holes":null,"par":null,"city":"Atlantic","state":null,"street":"102 West 29th Street","postcode":"50022","phone":"+1 712-243-3656","website":"https://www.theagcc.com/","access":null},{"id":"w207993750","name":"Atlantic Golf Club","lat":40.95011,"lon":-72.34,"holes":null,"par":null,"city":null,"state":null,"street":null,"postcode":null,"phone":null,"website":null,"access":null},{"id":"r4063503","name":"Atlantis Country Club","lat":26.60023,"lon":-80.10407,"holes":null,"par":null,"city":"Atlantis","state":null,"street":"190 Atlantis Boulevard","postcode":"33462","phone":"+1-561-965-7700","website":"https://www.atlantiscountryclub.com/","access":null},{"id":"r4063504","name":"Atlantis Golf Club","lat":26.59414,"lon":-80.10278,"holes":null,"par":null,"city":"Atlantis","state":null,"street":"301 Orange Tree Drive","postcode":"33462","phone":"+1-561-966-7600","website":"http://www.atlantisgolf.org/","access":null},{"id":"w281416414","name":"Attalla Country Club","lat":34.00926,"lon":-86.09824,"holes":null,"par":null,"city":null,"state":null,"street":null,"postcode":null,"phone":null,"website":null,"access":null},{"id":"w134376219","name":"Atunyote at Turning Stone","lat":43.09509,"lon":-75.5339,"holes":null,"par":null,"city":null,"state":null,"street":null,"postcode":null,"phone":null,"website":null,"access":null},{"id":"w588213949","name":"Atwood Country Club","lat":39.81903,"lon":-101.04204,"holes":null,"par":null,"city":null,"state":null,"street":null,"postcode":null,"phone":null,"website":null,"access":null},{"id":"w808162358","name":"Atwood Homestead","lat":42.39046,"lon":-89.05425,"holes":null,"par":null,"city":null,"state":null,"street":null,"postcode":null,"phone":"+1-815-623-2411","website":"https://www.playthepreserves.com/atwood-homestead/","access":null},{"id":"w540098155","name":"Auberge & Club de golf Heritage","lat":45.76256,"lon":-74.97616,"holes":null,"par":null,"city":null,"state":null,"street":null,"postcode":null,"phone":null,"website":null,"access":null},{"id":"w831297181","name":"Auburn Golf Course","lat":47.33533,"lon":-122.20703,"holes":null,"par":null,"city":null,"state":null,"street":null,"postcode":null,"phone":null,"website":null,"access":null},{"id":"w983275282","name":"Auburn Hills","lat":37.07841,"lon":-80.44257,"holes":null,"par":null,"city":null,"state":null,"street":null,"postcode":null,"phone":null,"website":null,"access":null},{"id":"r1975329","name":"Auburn Hills Golf Course","lat":37.67211,"lon":-97.49816,"holes":null,"par":null,"city":null,"state":null,"street":null,"postcode":null,"phone":null,"website":null,"access":null},{"id":"w326762174","name":"Auburn Links","lat":32.54675,"lon":-85.50958,"holes":null,"par":null,"city":null,"state":null,"street":null,"postcode":null,"phone":null,"website":null,"access":null},{"id":"r4599958","name":"Auburn University Club","lat":32.62973,"lon":-85.50914,"holes":null,"par":null,"city":null,"state":null,"street":null,"postcode":null,"phone":null,"website":null,"access":null},{"id":"w44421490","name":"Auburn Valley Golf Club","lat":39.00681,"lon":-121.14452,"holes":null,"par":null,"city":null,"state":null,"street":null,"postcode":null,"phone":null,"website":"https://www.auburnvalleygc.com/golf/scorecard","access":null},{"id":"w488365203","name":"Audubon 9-Par Golf Course","lat":42.98862,"lon":-78.77002,"holes":null,"par":null,"city":null,"state":null,"street":null,"postcode":null,"phone":null,"website":null,"access":null},{"id":"r4023334","name":"Audubon Country Club","lat":26.31535,"lon":-81.81575,"holes":18,"par":72,"city":"Naples","state":null,"street":"625 Audubon Boulevard","postcode":"34110","phone":"+1-239-566-9800","website":"http://www.audubonccofnaples.com/","access":null},{"id":"w297224921","name":"Audubon Golf and Country Club","lat":41.71876,"lon":-94.94167,"holes":null,"par":null,"city":"Audubon","state":null,"street":"520 South Division Street","postcode":"50025","phone":"+1 712-563-2348","website":"http://www.golfaudubon.com/","access":null},{"id":"w27887431","name":"Audubon Park Golf Course","lat":29.92981,"lon":-90.12722,"holes":null,"par":null,"city":null,"state":null,"street":null,"postcode":null,"phone":null,"website":null,"access":null},{"id":"w458530135","name":"Auglaize Golf Club","lat":41.2045,"lon":-84.45016,"holes":null,"par":null,"city":null,"state":null,"street":null,"postcode":null,"phone":null,"website":null,"access":null},{"id":"w200139798","name":"Augusta Country Club","lat":37.69356,"lon":-96.96578,"holes":null,"par":null,"city":null,"state":null,"street":null,"postcode":null,"phone":null,"website":"https://www.augustaccgolf.com/","access":null},{"id":"w871997938","name":"Augusta Country Club","lat":33.4891,"lon":-82.01821,"holes":null,"par":null,"city":null,"state":null,"street":null,"postcode":null,"phone":null,"website":null,"access":null},{"id":"r20071811","name":"Augusta Country Club","lat":44.32468,"lon":-69.87564,"holes":null,"par":null,"city":"Manchester","state":null,"street":null,"postcode":"04351","phone":"+1-207-623-3021","website":"https://www.augustacountryclub.org/","access":null},{"id":"w51846893","name":"Augustine Golf Course","lat":38.44255,"lon":-77.47594,"holes":null,"par":null,"city":null,"state":null,"street":null,"postcode":null,"phone":null,"website":null,"access":null},{"id":"w479298686","name":"Aurelia Golf Club","lat":42.71845,"lon":-95.43139,"holes":null,"par":null,"city":"Aurelia","state":null,"street":"601 Valor Road","postcode":"51005","phone":"+1 712 434 5498","website":"https://www.aureliaia.com/Aurelia_Golf_Club_Inc.htm","access":null},{"id":"w70650250","name":"Aurora Country Club","lat":41.74874,"lon":-88.35423,"holes":null,"par":null,"city":null,"state":null,"street":null,"postcode":null,"phone":null,"website":null,"access":null},{"id":"w139128994","name":"Ausable Club Golf Course","lat":44.15112,"lon":-73.77637,"holes":null,"par":null,"city":null,"state":null,"street":null,"postcode":null,"phone":null,"website":null,"access":null},{"id":"n2881922828","name":"Austin Country Club","lat":30.3429,"lon":-97.79751,"holes":null,"par":null,"city":"Austin","state":null,"street":"4408 Long Champ Drive","postcode":"78746","phone":null,"website":null,"access":null},{"id":"w135624802","name":"Austin Country Club","lat":43.67791,"lon":-92.9244,"holes":null,"par":null,"city":null,"state":null,"street":null,"postcode":null,"phone":null,"website":null,"access":null},{"id":"w253740948","name":"Austin Golf Course","lat":30.40957,"lon":-98.09762,"holes":null,"par":null,"city":null,"state":null,"street":null,"postcode":null,"phone":null,"website":null,"access":null},{"id":"w292388739","name":"Autumn Ridge Colf Course","lat":43.99014,"lon":-87.86254,"holes":null,"par":null,"city":"Valders","state":null,"street":"One Straight Drive","postcode":"54245","phone":"+1-920-758-3333","website":"https://www.autumnridgegolfcourse.com/","access":null},{"id":"r4084996","name":"Autumn Ridge Golf","lat":41.19276,"lon":-85.10903,"holes":null,"par":null,"city":"Fort Wayne","state":null,"street":"11420 Auburn Road","postcode":"46845","phone":"+1-260-637-8727","website":"https://www.autumnridgegc.com/","access":null},{"id":"w1359372584","name":"Avalon at Buhl Park","lat":41.2443,"lon":-80.49159,"holes":null,"par":null,"city":null,"state":null,"street":null,"postcode":null,"phone":null,"website":null,"access":null},{"id":"r13072043","name":"Avalon Golf & Country Club","lat":35.85854,"lon":-84.25661,"holes":null,"par":null,"city":null,"state":null,"street":null,"postcode":null,"phone":null,"website":null,"access":null},{"id":"w481889427","name":"Avalon Lakes Golf Course","lat":41.24236,"lon":-80.71916,"holes":null,"par":null,"city":null,"state":null,"street":null,"postcode":null,"phone":null,"website":null,"access":null},{"id":"w1482734144","name":"Avery Ranch Golf Club","lat":30.50356,"lon":-97.77024,"holes":null,"par":null,"city":null,"state":null,"street":null,"postcode":null,"phone":null,"website":null,"access":null},{"id":"w309763117","name":"Aviator Golf Center","lat":40.59016,"lon":-73.90333,"holes":null,"par":null,"city":null,"state":null,"street":null,"postcode":null,"phone":null,"website":null,"access":null},{"id":"r3571055","name":"Avila Beach Resort Golf Course","lat":35.18523,"lon":-120.7323,"holes":null,"par":null,"city":null,"state":null,"street":null,"postcode":null,"phone":null,"website":"https://www.avilabeachresort.com/","access":null},{"id":"w50612139","name":"Avoca Golf Club","lat":41.49196,"lon":-95.33064,"holes":null,"par":null,"city":null,"state":null,"street":null,"postcode":null,"phone":null,"website":null,"access":null},{"id":"w34047871","name":"Avon Field","lat":39.16059,"lon":-84.47809,"holes":null,"par":null,"city":"Cincinnati","state":null,"street":"4081 Reading Road","postcode":null,"phone":null,"website":"https://www.cincygolf.org/avon-fields","access":null},{"id":"w210252319","name":"Avon Oaks Country Club","lat":41.46217,"lon":-81.97304,"holes":null,"par":null,"city":null,"state":null,"street":null,"postcode":null,"phone":null,"website":null,"access":null},{"id":"w518538312","name":"Avondale Golf Club","lat":33.7654,"lon":-116.34196,"holes":null,"par":null,"city":null,"state":null,"street":null,"postcode":null,"phone":null,"website":"https://www.avondalegolfclub.com/","access":null},{"id":"w316078175","name":"Ayden Golf & Country Club","lat":35.46073,"lon":-77.38984,"holes":null,"par":null,"city":"Ayden","state":null,"street":"4343 Ayden Golf Club Road","postcode":"28513","phone":"+1-252-746-3389","website":"https://www.aydengolf.com/","access":null},{"id":"w152993869","name":"Azalea City Golf Course","lat":30.70148,"lon":-88.16858,"holes":null,"par":null,"city":"Mobile","state":null,"street":"1000 Gaillard Drive","postcode":"36608","phone":"+1 251-208-5150","website":"https://www.cityofmobile.org/azaleagolf/","access":null},{"id":"r4077905","name":"Azusa Greens Country Club","lat":34.14547,"lon":-117.91818,"holes":null,"par":null,"city":"Azusa","state":null,"street":"919 West Sierra Madre Avenue","postcode":"91702","phone":"+1-626-969-1727","website":"http://www.azusagreenscc.com/","access":null},{"id":"w29018535","name":"B L England Golf Course","lat":39.28394,"lon":-74.63403,"holes":null,"par":null,"city":null,"state":null,"street":null,"postcode":null,"phone":null,"website":null,"access":null},{"id":"w1229468439","name":"B's On The  River","lat":44.97606,"lon":-93.82974,"holes":null,"par":null,"city":null,"state":null,"street":null,"postcode":null,"phone":null,"website":null,"access":null},{"id":"r13950510","name":"Babcock National","lat":26.7994,"lon":-81.7369,"holes":null,"par":null,"city":null,"state":null,"street":null,"postcode":null,"phone":null,"website":null,"access":null},{"id":"r4680174","name":"Babe Zaharias Golf Course","lat":28.04821,"lon":-82.47346,"holes":18,"par":72,"city":null,"state":null,"street":null,"postcode":null,"phone":"+1-813-631-4374","website":"https://babezahariasgolf.net/","access":null},{"id":"r5352771","name":"Babe Zaharias Golf Course","lat":29.94252,"lon":-93.975,"holes":null,"par":null,"city":"Port Arthur","state":null,"street":"3500 Jimmy Johnson Boulevard","postcode":"77642","phone":"+1 409 722 8286","website":"http://www.aquilagolf.com/babe-zaharias/","access":null},{"id":"w487005879","name":"Back Acres Country Club","lat":34.57526,"lon":-89.93813,"holes":null,"par":null,"city":"Senatobia","state":null,"street":"Country Club Drive","postcode":"38668","phone":"+1 662 562 9838","website":"http://backacc.com/","access":null},{"id":"r2892527","name":"Backbone Golf and Country Club","lat":42.64138,"lon":-91.5596,"holes":null,"par":null,"city":null,"state":null,"street":null,"postcode":null,"phone":null,"website":null,"access":null},{"id":"w31470738","name":"Bacon Park Golf Course","lat":32.01061,"lon":-81.08777,"holes":null,"par":null,"city":"Savannah","state":null,"street":"1 Shorty Cooper Drive","postcode":"31406","phone":"+1-912-354-2625","website":"https://www.baconparkgolf.com/","access":null},{"id":"r9952958","name":"Baehmann's Par 3 Course","lat":43.31712,"lon":-87.99863,"holes":9,"par":null,"city":null,"state":null,"street":null,"postcode":null,"phone":null,"website":null,"access":null},{"id":"w1486187217","name":"Bahia Kino Desert Golf Course","lat":28.86279,"lon":-112.01785,"holes":null,"par":null,"city":null,"state":null,"street":null,"postcode":null,"phone":null,"website":null,"access":null},{"id":"r16718878","name":"Bailey Ranch Golf Club","lat":36.28077,"lon":-95.86165,"holes":null,"par":null,"city":null,"state":null,"street":null,"postcode":null,"phone":null,"website":null,"access":null},{"id":"n11483053087","name":"Bailey Ranch Golf Course","lat":36.28181,"lon":-95.86242,"holes":null,"par":null,"city":null,"state":null,"street":null,"postcode":null,"phone":null,"website":null,"access":null},{"id":"w29270704","name":"Baiting Hallow Golf Club","lat":40.96215,"lon":-72.74331,"holes":null,"par":null,"city":null,"state":null,"street":null,"postcode":null,"phone":null,"website":null,"access":null},{"id":"w719026943","name":"Bajamar Ocean Front Golf Resort","lat":32.01618,"lon":-116.87035,"holes":null,"par":null,"city":null,"state":null,"street":null,"postcode":null,"phone":null,"website":null,"access":null},{"id":"w148067474","name":"Baker City Golf Club","lat":44.76368,"lon":-117.84522,"holes":null,"par":null,"city":null,"state":null,"street":null,"postcode":null,"phone":null,"website":null,"access":null},{"id":"w762019679","name":"Bakker Crossing Championship Golf Course","lat":43.44633,"lon":-96.77238,"holes":null,"par":null,"city":null,"state":null,"street":null,"postcode":null,"phone":null,"website":null,"access":null},{"id":"w74962250","name":"Bala Golf Course","lat":39.99621,"lon":-75.22269,"holes":null,"par":null,"city":null,"state":null,"street":null,"postcode":null,"phone":null,"website":null,"access":null},{"id":"r3573430","name":"Balboa Park Golf Course","lat":32.72844,"lon":-117.13804,"holes":null,"par":null,"city":null,"state":null,"street":null,"postcode":null,"phone":"+1-619-239-1660","website":"https://www.balboagc.com/","access":null},{"id":"w30903717","name":"Balcones Country Club","lat":30.44023,"lon":-97.78881,"holes":null,"par":null,"city":"Austin","state":null,"street":"8600 Balcones Club Drive","postcode":"78750","phone":null,"website":null,"access":"private"},{"id":"w30903961","name":"Balcones Country Club","lat":30.43579,"lon":-97.80488,"holes":null,"par":null,"city":null,"state":null,"street":null,"postcode":null,"phone":null,"website":null,"access":"private"},{"id":"w323166187","name":"Bald Knob Country Club","lat":35.31531,"lon":-91.58886,"holes":null,"par":null,"city":null,"state":null,"street":null,"postcode":null,"phone":null,"website":null,"access":null},{"id":"r20053932","name":"Bald Mountain Golf Course","lat":35.46759,"lon":-82.19467,"holes":null,"par":null,"city":null,"state":null,"street":null,"postcode":null,"phone":null,"website":"https://www.rumblingbald.com/spectacular-mountain-golf/bald-mountain/","access":null},{"id":"r17179580","name":"Bald Peak Colony Club","lat":43.69673,"lon":-71.32799,"holes":18,"par":72,"city":null,"state":null,"street":null,"postcode":null,"phone":"+1 603 544 2511","website":"https://www.baldpeak.org/golf","access":null},{"id":"w151983738","name":"Baldwin Golf Course","lat":38.77086,"lon":-95.19792,"holes":null,"par":null,"city":null,"state":null,"street":null,"postcode":null,"phone":null,"website":null,"access":null},{"id":"w785138660","name":"Balfour Golf Course","lat":49.63145,"lon":-116.95851,"holes":null,"par":null,"city":"Balfour","state":null,"street":"602 Queens Bay Road","postcode":null,"phone":null,"website":null,"access":null},{"id":"w134048326","name":"Bali Hai Golf Club","lat":36.07948,"lon":-115.17664,"holes":18,"par":71,"city":null,"state":null,"street":null,"postcode":null,"phone":"+1 702 450 8191","website":"https://www.balihaigolfclub.com/","access":"private"},{"id":"w28571068","name":"Ballamor Golf Club","lat":39.37757,"lon":-74.6527,"holes":null,"par":null,"city":null,"state":null,"street":null,"postcode":null,"phone":null,"website":null,"access":null},{"id":"w169458559","name":"Ballantrae Golf Club","lat":44.04926,"lon":-79.29187,"holes":null,"par":null,"city":null,"state":null,"street":null,"postcode":null,"phone":null,"website":null,"access":null},{"id":"w169458561","name":"Ballantrae Golf Club","lat":44.04409,"lon":-79.28947,"holes":null,"par":null,"city":null,"state":null,"street":null,"postcode":null,"phone":null,"website":null,"access":null},{"id":"w169458562","name":"Ballantrae Golf Club","lat":44.04814,"lon":-79.28792,"holes":null,"par":null,"city":null,"state":null,"street":null,"postcode":null,"phone":null,"website":null,"access":null},{"id":"r4525118","name":"Ballantyne Country Club","lat":35.04781,"lon":-80.84904,"holes":null,"par":null,"city":"Charlotte","state":null,"street":"11120 Ballantyne Crossing Avenue","postcode":"28277","phone":"+1-704-544-1404","website":"https://www.ballantyneclub.com/","access":null},{"id":"r5548824","name":"BallenIsles","lat":26.82469,"lon":-80.11826,"holes":54,"par":72,"city":null,"state":null,"street":null,"postcode":null,"phone":"+1-561-775-4763","website":"http://www.ballenisles.com/golfhome.html","access":"private"},{"id":"w1254650372","name":"Ballinger Country Club","lat":31.74019,"lon":-99.98775,"holes":null,"par":null,"city":null,"state":null,"street":null,"postcode":null,"phone":null,"website":null,"access":null},{"id":"w142514350","name":"Ballston Spa Country Club","lat":43.00234,"lon":-73.87517,"holes":null,"par":null,"city":"Ballston Spa","state":null,"street":"1366 Amsterdam Road","postcode":"12020","phone":"+1-518-885-1603","website":"https://www.ballstonspacc.com/","access":null},{"id":"w431674088","name":"Ballwin Golf Course & Event Center","lat":38.60394,"lon":-90.54461,"holes":null,"par":null,"city":"Ballwin","state":null,"street":"333 Holloway Road","postcode":"63011","phone":"+1-636-227-1750","website":"https://www.ballwingolfcourse.com/","access":null},{"id":"w574231934","name":"Ballyhack Golf Club","lat":37.23018,"lon":-79.8908,"holes":null,"par":null,"city":null,"state":null,"street":null,"postcode":null,"phone":null,"website":null,"access":null},{"id":"w220048569","name":"Ballyowens Golf Club","lat":41.13729,"lon":-74.5846,"holes":null,"par":null,"city":null,"state":null,"street":null,"postcode":null,"phone":"+1-855-977-6473","website":"https://www.crystalgolfresort.com/golf/courses/ballyowen/","access":null},{"id":"w945208725","name":"Balmoral","lat":46.37407,"lon":-95.64821,"holes":null,"par":null,"city":null,"state":null,"street":null,"postcode":null,"phone":null,"website":null,"access":null},{"id":"w379500320","name":"Balmoral Golf Club","lat":45.89368,"lon":-74.22738,"holes":null,"par":null,"city":null,"state":null,"street":null,"postcode":null,"phone":null,"website":null,"access":null},{"id":"r20018475","name":"Balmoral Golf Course","lat":39.9334,"lon":-86.05309,"holes":null,"par":null,"city":null,"state":null,"street":null,"postcode":null,"phone":null,"website":null,"access":null},{"id":"w91989932","name":"Baltimore Country Club","lat":39.44346,"lon":-76.6623,"holes":null,"par":null,"city":null,"state":null,"street":null,"postcode":null,"phone":null,"website":null,"access":null},{"id":"w39835869","name":"Baltusrol Golf Course","lat":40.69837,"lon":-74.33345,"holes":null,"par":null,"city":"Springfield","state":null,"street":"201 Shunpike Road","postcode":"07081","phone":null,"website":null,"access":null},{"id":"w58244163","name":"Bancroft Golf Course","lat":45.08845,"lon":-77.86419,"holes":null,"par":null,"city":null,"state":null,"street":"545 Hastings Street North","postcode":"K0L 1C0","phone":null,"website":null,"access":null},{"id":"r17208375","name":"Bancroft Ridge Golf Club","lat":45.07571,"lon":-77.86912,"holes":null,"par":null,"city":null,"state":null,"street":null,"postcode":null,"phone":null,"website":null,"access":null},{"id":"n5359402121","name":"Bancroft Ridge Golf Course","lat":45.07315,"lon":-77.87188,"holes":null,"par":null,"city":"Bancroft","state":null,"street":"30 Nicklaus Dr","postcode":null,"phone":"+1-613-332-4653","website":"https://www.golfbancroftridge.com/","access":null},{"id":"r6799850","name":"Bandemer Park Disc Golf","lat":42.29957,"lon":-83.74362,"holes":null,"par":null,"city":null,"state":null,"street":null,"postcode":null,"phone":null,"website":null,"access":null},{"id":"n3668057526","name":"Bandon Dunes Golf Resort","lat":43.18808,"lon":-124.39016,"holes":null,"par":null,"city":null,"state":null,"street":null,"postcode":null,"phone":null,"website":null,"access":null},{"id":"w362513477","name":"Bandon Dunes Golf Resort","lat":43.19864,"lon":-124.39091,"holes":null,"par":null,"city":null,"state":null,"street":null,"postcode":null,"phone":null,"website":null,"access":null},{"id":"w823626858","name":"Bandon Sheep Ranch","lat":43.21765,"lon":-124.3905,"holes":null,"par":null,"city":null,"state":null,"street":null,"postcode":null,"phone":null,"website":null,"access":null},{"id":"w362513476","name":"Bandon Trails","lat":43.17828,"lon":-124.38566,"holes":null,"par":null,"city":null,"state":null,"street":null,"postcode":null,"phone":null,"website":null,"access":null},{"id":"w43377478","name":"Bangor Municipal Golf Course","lat":44.79187,"lon":-68.79495,"holes":null,"par":null,"city":null,"state":null,"street":null,"postcode":null,"phone":null,"website":null,"access":null},{"id":"w94347807","name":"Banty's Roost Golf & Country Club","lat":43.78591,"lon":-79.80663,"holes":null,"par":null,"city":null,"state":null,"street":null,"postcode":null,"phone":null,"website":"https://bantysroost.com/","access":null},{"id":"r5464220","name":"Banyan Cay","lat":26.73247,"lon":-80.08379,"holes":18,"par":71,"city":null,"state":null,"street":null,"postcode":null,"phone":"+1-561-686-4700","website":"https://www.presidentcc.com/","access":null},{"id":"w185911414","name":"Banyan Golf Club","lat":26.65813,"lon":-80.18915,"holes":null,"par":null,"city":"West Palm Beach","state":null,"street":"1393 Lyons Road","postcode":"33411","phone":"+1-561-793-2800","website":"https://www.banyangolfclub.com/","access":null},{"id":"w30240118","name":"Baraboo Country Club","lat":43.45135,"lon":-89.73664,"holes":null,"par":null,"city":"Baraboo","state":null,"street":"401 Mine Street","postcode":"53913","phone":"+1-608-356-8195","website":"http://www.baraboocountryclub.com/","access":null},{"id":"w299169415","name":"Barbour Country Club Golf Course","lat":39.10385,"lon":-80.08924,"holes":null,"par":null,"city":null,"state":null,"street":null,"postcode":null,"phone":null,"website":null,"access":null},{"id":"w136670183","name":"Barney Road Golf Course","lat":42.84772,"lon":-73.80656,"holes":null,"par":null,"city":"Clifton Park","state":null,"street":"1 Barney Road","postcode":"12065","phone":"+1-518-373-1435","website":"http://www.barneyroadgolf.org/","access":null},{"id":"w218739730","name":"Barona Resort Golf Course","lat":32.94681,"lon":-116.87232,"holes":null,"par":null,"city":null,"state":null,"street":null,"postcode":null,"phone":null,"website":null,"access":null},{"id":"w175953971","name":"Barrie Golf & Country Club","lat":44.42572,"lon":-79.69321,"holes":null,"par":null,"city":"Springwater","state":null,"street":"St Vincent Street","postcode":null,"phone":null,"website":null,"access":null},{"id":"w307080516","name":"Barrington Hills Country Club","lat":42.16159,"lon":-88.16729,"holes":null,"par":null,"city":null,"state":null,"street":null,"postcode":null,"phone":null,"website":null,"access":null},{"id":"n2881899160","name":"Barton Creek Country Club","lat":30.29155,"lon":-97.86007,"holes":null,"par":null,"city":"Barton Creek","state":null,"street":"8212 Barton Club Drive","postcode":"78735","phone":null,"website":null,"access":null},{"id":"w709072894","name":"Barton Creek Crenshaw Cliffside","lat":30.2836,"lon":-97.85471,"holes":null,"par":null,"city":null,"state":null,"street":null,"postcode":null,"phone":null,"website":null,"access":null},{"id":"r3778021","name":"Barton Creek Fazio Canyons","lat":30.27044,"lon":-97.8778,"holes":null,"par":null,"city":null,"state":null,"street":null,"postcode":null,"phone":null,"website":null,"access":null},{"id":"w31820623","name":"Barton Creek Fazio Foothills","lat":30.29302,"lon":-97.86003,"holes":null,"par":null,"city":null,"state":null,"street":null,"postcode":null,"phone":null,"website":null,"access":null},{"id":"n2885388523","name":"Barton Creek Golf Academy","lat":30.27089,"lon":-97.87628,"holes":null,"par":null,"city":"Austin","state":null,"street":"8511 Carranzo Dr","postcode":"78735","phone":"+1-512-301-1054","website":null,"access":null},{"id":"r18286836","name":"Barton Creek Lakeside Country Club","lat":30.46219,"lon":-98.09457,"holes":18,"par":null,"city":"Spicewood","state":null,"street":"1900 Clubhouse Hill Drive","postcode":"78669","phone":null,"website":null,"access":null},{"id":"w442911826","name":"Barton Golf Club","lat":44.7654,"lon":-72.16559,"holes":18,"par":72,"city":"Barton","state":null,"street":"548 Telfer Hill Road","postcode":"05822","phone":"+1 802 525 1126","website":"https://www.bartongolfclub.com/","access":null},{"id":"w589544824","name":"Bartram Trail Golf Club","lat":33.51981,"lon":-82.21585,"holes":null,"par":null,"city":null,"state":null,"street":null,"postcode":null,"phone":null,"website":null,"access":null},{"id":"w570746358","name":"Bas Ridge Golf Club","lat":42.44389,"lon":-73.12229,"holes":18,"par":70,"city":null,"state":null,"street":null,"postcode":null,"phone":null,"website":null,"access":null},{"id":"w40375312","name":"Basking Ridge Country Club","lat":40.71553,"lon":-74.53282,"holes":null,"par":null,"city":null,"state":null,"street":null,"postcode":null,"phone":null,"website":null,"access":null},{"id":"w23810966","name":"Bass Creek Golf Club","lat":42.65731,"lon":-89.21844,"holes":null,"par":null,"city":"Janesville","state":null,"street":"1303 South Murphy Road","postcode":"53548","phone":"+1-608-876-6631","website":"https://www.golfbasscreek.com/","access":null},{"id":"r11981343","name":"Bass Lake Golf Course","lat":45.35658,"lon":-89.18604,"holes":null,"par":null,"city":"Deerbrook","state":null,"street":"W10650 Bass Lake Road","postcode":"54424","phone":"+1-715-623-6196","website":"https://www.basslakecc.com/","access":null},{"id":"w29800143","name":"Bass River Golf Course","lat":41.67565,"lon":-70.17671,"holes":18,"par":72,"city":"South Yarmouth","state":null,"street":"62 Highbank Road","postcode":"02664","phone":"+1-508-398-9079","website":"https://www.golfyarmouthcapecod.com/","access":null},{"id":"w142824031","name":"Bassett Country Club","lat":42.57178,"lon":-99.58289,"holes":null,"par":null,"city":null,"state":null,"street":null,"postcode":null,"phone":null,"website":null,"access":null},{"id":"w296944931","name":"Batesville Municipal Golf Course","lat":35.7561,"lon":-91.63168,"holes":null,"par":null,"city":"Batesville","state":null,"street":"1850 Chaney Drive","postcode":null,"phone":null,"website":"https://www.cityofbatesville.com/departmentsparks_recreation.php","access":null},{"id":"w34585413","name":"Bathurst Glen Golf Course","lat":43.92789,"lon":-79.47155,"holes":null,"par":null,"city":"Richmond Hill","state":null,"street":"12461 Bathurst Street","postcode":null,"phone":null,"website":null,"access":null},{"id":"w234946628","name":"Batteaux Creek Golf","lat":44.43678,"lon":-80.19421,"holes":null,"par":null,"city":null,"state":null,"street":null,"postcode":null,"phone":"+1-888-833-8787","website":"https://www.golfnorth.ca/batteaux/","access":null},{"id":"w121856575","name":"Battenkill Country Club","lat":43.0979,"lon":-73.53199,"holes":null,"par":null,"city":null,"state":null,"street":null,"postcode":null,"phone":null,"website":null,"access":null},{"id":"w261456431","name":"Battle Creek Country Club","lat":42.28011,"lon":-85.2089,"holes":null,"par":null,"city":null,"state":null,"street":null,"postcode":null,"phone":null,"website":"https://www.battlecreekcc.com/","access":null},{"id":"w54454203","name":"Battle Creek Golf Course","lat":48.05368,"lon":-122.233,"holes":null,"par":null,"city":null,"state":null,"street":null,"postcode":null,"phone":null,"website":"http://www.battlecreeklinks.com/","access":null},{"id":"w135390679","name":"Battle Island State Park Golf Course","lat":43.36074,"lon":-76.43712,"holes":null,"par":null,"city":null,"state":null,"street":null,"postcode":null,"phone":"+1 315-593-3408","website":"https://parks.ny.gov/golf/battleisland/details.aspx","access":null},{"id":"w798177674","name":"Battle Lake Golf Club","lat":31.54018,"lon":-96.89824,"holes":null,"par":null,"city":null,"state":null,"street":null,"postcode":null,"phone":null,"website":null,"access":null},{"id":"w31388098","name":"Battlefield Golf Club and Estates","lat":34.92491,"lon":-85.2211,"holes":null,"par":null,"city":null,"state":null,"street":null,"postcode":null,"phone":null,"website":null,"access":null},{"id":"w255797011","name":"Bavarian Hills","lat":41.44857,"lon":-78.5422,"holes":null,"par":null,"city":null,"state":null,"street":null,"postcode":null,"phone":null,"website":null,"access":null},{"id":"w226000749","name":"Bay Breeze Golf Course","lat":45.47986,"lon":-123.84193,"holes":null,"par":null,"city":null,"state":null,"street":null,"postcode":null,"phone":null,"website":null,"access":null},{"id":"w274199300","name":"Bay City Country Club","lat":43.53014,"lon":-83.95022,"holes":null,"par":null,"city":null,"state":null,"street":null,"postcode":null,"phone":null,"website":"https://baycitycountryclub.com/","access":null},{"id":"r4144789","name":"Bay Club at Mattapoisett","lat":41.67606,"lon":-70.80786,"holes":null,"par":null,"city":"Mattapoisett","state":null,"street":"63 County Road","postcode":"02739","phone":"+1 508-207-9215","website":"https://www.bayclubmatt.com/","access":null},{"id":"r5462411","name":"Bay Colony Golf Club","lat":26.2629,"lon":-81.79475,"holes":18,"par":72,"city":null,"state":null,"street":null,"postcode":null,"phone":"+1-239-592-9515","website":"https://www.baycolonygolfclub.com/","access":"private"},{"id":"n6737200738","name":"Bay Harbor - The Links","lat":45.36245,"lon":-85.05604,"holes":null,"par":null,"city":null,"state":null,"street":null,"postcode":null,"phone":null,"website":null,"access":null},{"id":"n6737200739","name":"Bay Harbor - The Preserve","lat":45.36361,"lon":-85.07301,"holes":null,"par":null,"city":null,"state":null,"street":null,"postcode":null,"phone":null,"website":null,"access":null},{"id":"w52866257","name":"Bay Hills Golf Club","lat":39.04471,"lon":-76.47659,"holes":null,"par":null,"city":null,"state":null,"street":null,"postcode":null,"phone":null,"website":null,"access":null},{"id":"w52866258","name":"Bay Hills Golf Club","lat":39.04457,"lon":-76.46721,"holes":null,"par":null,"city":null,"state":null,"street":null,"postcode":null,"phone":null,"website":null,"access":null},{"id":"w72949004","name":"Bay of Quinte Country Club","lat":44.14108,"lon":-77.44486,"holes":null,"par":null,"city":null,"state":null,"street":"1830 Old Highway #2","postcode":null,"phone":null,"website":null,"access":null},{"id":"w1253114615","name":"Bay Pointe","lat":41.74937,"lon":-70.64203,"holes":null,"par":null,"city":null,"state":null,"street":null,"postcode":null,"phone":null,"website":null,"access":null},{"id":"w91783769","name":"Bay View Retirees Golf Course","lat":41.69414,"lon":-83.48004,"holes":null,"par":null,"city":null,"state":null,"street":null,"postcode":null,"phone":null,"website":null,"access":null},{"id":"w561672110","name":"Bay-Cel Golf Course","lat":28.85696,"lon":-96.02571,"holes":null,"par":null,"city":null,"state":null,"street":null,"postcode":null,"phone":null,"website":null,"access":null},{"id":"w288111192","name":"Bayberry Hills Golf Course","lat":41.68287,"lon":-70.23113,"holes":18,"par":72,"city":"West Yarmouth","state":null,"street":"635 West Yarmouth Road","postcode":"02673","phone":"+1-508-394-5597","website":"https://www.golfyarmouthcapecod.com/-bayberry-hills-home-page","access":null},{"id":"r6377786","name":"Bayonet at Puppy Creek","lat":35.0138,"lon":-79.12601,"holes":null,"par":null,"city":"Raeford","state":null,"street":"349 South Parker Church Road","postcode":"28376","phone":"+1 888 229 6638","website":"https://www.bayonetgolf.com/","access":null},{"id":"w34414788","name":"Bayonne Golf Club","lat":40.66298,"lon":-74.09628,"holes":null,"par":null,"city":null,"state":null,"street":null,"postcode":null,"phone":null,"website":null,"access":null},{"id":"w216738151","name":"Bayou Barriere Golf Course","lat":29.87609,"lon":-90.00235,"holes":null,"par":null,"city":"Belle Chasse","state":null,"street":"7427 Highway 23","postcode":"70037","phone":"+1 504-394-9500","website":"http://www.bayoubarriere.com/","access":null},{"id":"w300927911","name":"Bayou Bend Golf Course","lat":30.19574,"lon":-92.37884,"holes":null,"par":null,"city":null,"state":null,"street":null,"postcode":null,"phone":null,"website":null,"access":null},{"id":"w73973718","name":"Bayou Country Club","lat":29.77735,"lon":-90.7946,"holes":null,"par":null,"city":null,"state":null,"street":null,"postcode":null,"phone":null,"website":null,"access":null},{"id":"w300988662","name":"Bayou Side Golf Course","lat":29.96084,"lon":-91.03259,"holes":null,"par":null,"city":null,"state":null,"street":null,"postcode":null,"phone":null,"website":null,"access":null},{"id":"w204620012","name":"Baypointe Golf Course","lat":27.85822,"lon":-82.83554,"holes":null,"par":null,"city":"Seminole","state":null,"street":"9399 Commodore Drive","postcode":"33776","phone":null,"website":"baypointegolf.net","access":null},{"id":"r2567452","name":"Baytowne Golf Club","lat":30.38337,"lon":-86.32445,"holes":null,"par":null,"city":"Miramar Beach","state":null,"street":"1199 Troon Drive","postcode":"32550","phone":"+1 850 267 8155","website":"https://www.baytownegolf.com/","access":null},{"id":"r1236059","name":"Baytree National","lat":28.21668,"lon":-80.70774,"holes":null,"par":null,"city":null,"state":null,"street":null,"postcode":null,"phone":null,"website":null,"access":null},{"id":"r313361","name":"Bayview Golf and Country Club","lat":43.81242,"lon":-79.38057,"holes":null,"par":null,"city":null,"state":null,"street":null,"postcode":null,"phone":null,"website":null,"access":null},{"id":"w72950113","name":"Bayview Golfing Centre","lat":44.13823,"lon":-77.43819,"holes":null,"par":null,"city":null,"state":null,"street":"1915 old Highway 2","postcode":null,"phone":null,"website":null,"access":null},{"id":"r6446031","name":"Baywood Golf Club","lat":35.05889,"lon":-78.75952,"holes":null,"par":null,"city":"Fayetteville","state":null,"street":"904 Four Wood Drive","postcode":"28312","phone":"+1 910 483 4330","website":"https://www.baywoodgc.com/","access":null},{"id":"w44487048","name":"Baywood Golf Course","lat":40.84601,"lon":-124.04908,"holes":null,"par":null,"city":null,"state":null,"street":null,"postcode":null,"phone":null,"website":null,"access":null},{"id":"w297943904","name":"Baywood Greens Golf Course","lat":38.64179,"lon":-75.18584,"holes":null,"par":null,"city":"Long Neck","state":null,"street":"32267 Clubhouse Way","postcode":"19966","phone":"+1 302-947-9225","website":"https://www.baywoodgreens.com/","access":null},{"id":"w311018233","name":"Beach Club Golf Links","lat":38.36073,"lon":-75.22235,"holes":null,"par":null,"city":null,"state":null,"street":null,"postcode":null,"phone":null,"website":null,"access":null},{"id":"w24487957","name":"Beach Grove Golf and Country Club","lat":49.02832,"lon":-123.06399,"holes":null,"par":null,"city":null,"state":null,"street":null,"postcode":null,"phone":null,"website":null,"access":null},{"id":"w206917492","name":"Beach Grove Golf and Country Club","lat":42.31633,"lon":-82.85114,"holes":null,"par":null,"city":null,"state":null,"street":null,"postcode":null,"phone":null,"website":null,"access":null},{"id":"w421207112","name":"Beach Grove Golf and Country Club","lat":49.02096,"lon":-123.06117,"holes":null,"par":null,"city":null,"state":null,"street":null,"postcode":null,"phone":null,"website":null,"access":null},{"id":"w23271616","name":"Beacon Hall Golf Club","lat":43.97675,"lon":-79.44922,"holes":null,"par":null,"city":null,"state":null,"street":null,"postcode":null,"phone":null,"website":null,"access":null},{"id":"w40368020","name":"Beacon Hill Country Club","lat":40.40782,"lon":-74.05207,"holes":null,"par":null,"city":null,"state":null,"street":null,"postcode":null,"phone":null,"website":null,"access":null},{"id":"r4595157","name":"Beacon Hill Golf and Banquet Facility","lat":42.60459,"lon":-83.53088,"holes":null,"par":null,"city":"Commerce Township","state":null,"street":"6011 Majestic Oaks Drive","postcode":"48382","phone":"+1-248-684-2200","website":"https://www.beaconhillgolf.com/","access":null},{"id":"w80401048","name":"Beacon Rock Golf Course","lat":45.63851,"lon":-121.98752,"holes":null,"par":null,"city":null,"state":null,"street":null,"postcode":null,"phone":null,"website":null,"access":null},{"id":"w11393297","name":"Beaconsfield","lat":45.44376,"lon":-73.83075,"holes":null,"par":null,"city":null,"state":null,"street":null,"postcode":null,"phone":null,"website":null,"access":null},{"id":"w138533027","name":"Bear Cave Park DISC Golf Course","lat":43.86053,"lon":-92.49819,"holes":null,"par":null,"city":null,"state":null,"street":null,"postcode":null,"phone":null,"website":null,"access":null},